{"type":"FeatureCollection","features":[{"type":"Feature","geometry":{"type":"Point","coordinates":[-71.465437,41.789598]},"properties":{"id":"private_01256947","name":"ST MARY ELEMENTARY SCHOOL","school_type":"private","street":"85 CHESTER AVE","city":"CRANSTON","state":"RI","zip":"02920","grades_low":0,"grades_high":8,"grade_bucket":"Elementary","lat":41.789598,"lon":-71.465437,"source":"NCES_PSS_2021_2022","pss_id":"01256947"}},{"type":"Feature","geometry":{"type":"Point","coordinates":[-71.558505,41.873193]},"properties":{"id":"private_01257011","name":"ST PHILIP SCHOOL","school_type":"private","street":"618 PUTNAM PIKE","city":"GREENVILLE","state":"RI","zip":"02828","grades_low":0,"grades_high":8,"grade_bucket":"Elementary","lat":41.873193,"lon":-71.558505,"source":"NCES_PSS_2021_2022","pss_id":"01257011"}},{"type":"Feature","geometry":{"type":"Point","coordinates":[-71.457551,41.65456]},"properties":{"id":"private_01257022","name":"OUR LADY OF MERCY SCHOOL","school_type":"private","street":"55 4TH AVE","city":"EAST GREENWICH","state":"RI","zip":"02818","grades_low":0,"grades_high":8,"grade_bucket":"Elementary","lat":41.65456,"lon":-71.457551,"source":"NCES_PSS_2021_2022","pss_id":"01257022"}},{"type":"Feature","geometry":{"type":"Point","coordinates":[-71.377484,41.819419]},"properties":{"id":"private_01257033","name":"SACRED HEART SCHOOL","school_type":"private","street":"56 PURCHASE ST","city":"EAST PROVIDENCE","state":"RI","zip":"02914","grades_low":5,"grades_high":8,"grade_bucket":"Elementary","lat":41.819419,"lon":-71.377484,"source":"NCES_PSS_2021_2022","pss_id":"01257033"}},{"type":"Feature","geometry":{"type":"Point","coordinates":[-71.484241,41.79717]},"properties":{"id":"private_01257044","name":"ST ROCCO SCHOOL","school_type":"private","street":"931 ATWOOD AVE","city":"JOHNSTON","state":"RI","zip":"02919","grades_low":0,"grades_high":8,"grade_bucket":"Elementary","lat":41.79717,"lon":-71.484241,"source":"NCES_PSS_2021_2022","pss_id":"01257044"}},{"type":"Feature","geometry":{"type":"Point","coordinates":[-71.353931,41.88784]},"properties":{"id":"private_01257135","name":"ST CECILIA SCHOOL","school_type":"private","street":"755 CENTRAL AVE","city":"PAWTUCKET","state":"RI","zip":"02861","grades_low":5,"grades_high":8,"grade_bucket":"Elementary","lat":41.88784,"lon":-71.353931,"source":"NCES_PSS_2021_2022","pss_id":"01257135"}},{"type":"Feature","geometry":{"type":"Point","coordinates":[-71.376071,41.87704]},"properties":{"id":"private_01257168","name":"ST RAPHAEL ACADEMY","school_type":"private","street":"123 WALCOTT ST","city":"PAWTUCKET","state":"RI","zip":"02860","grades_low":9,"grades_high":12,"grade_bucket":"High","lat":41.87704,"lon":-71.376071,"source":"NCES_PSS_2021_2022","pss_id":"01257168"}},{"type":"Feature","geometry":{"type":"Point","coordinates":[-71.355985,41.867569]},"properties":{"id":"private_01257179","name":"ST TERESA SCHOOL","school_type":"private","street":"140 WOODHAVEN RD","city":"PAWTUCKET","state":"RI","zip":"02861","grades_low":0,"grades_high":8,"grade_bucket":"Elementary","lat":41.867569,"lon":-71.355985,"source":"NCES_PSS_2021_2022","pss_id":"01257179"}},{"type":"Feature","geometry":{"type":"Point","coordinates":[-71.276281,41.59881]},"properties":{"id":"private_01257226","name":"ST PHILOMENA SCHOOL OF THE SACRED HEART","school_type":"private","street":"324 CORY'S LN","city":"PORTSMOUTH","state":"RI","zip":"02871","grades_low":0,"grades_high":8,"grade_bucket":"Elementary","lat":41.59881,"lon":-71.276281,"source":"NCES_PSS_2021_2022","pss_id":"01257226"}},{"type":"Feature","geometry":{"type":"Point","coordinates":[-71.443051,41.82902]},"properties":{"id":"private_01257237","name":"BLESSED SACRAMENT SCHOOL","school_type":"private","street":"240 REGENT AVE","city":"PROVIDENCE","state":"RI","zip":"02908","grades_low":0,"grades_high":8,"grade_bucket":"Elementary","lat":41.82902,"lon":-71.443051,"source":"NCES_PSS_2021_2022","pss_id":"01257237"}},{"type":"Feature","geometry":{"type":"Point","coordinates":[-71.4458,41.842304]},"properties":{"id":"private_01257281","name":"LA SALLE ACADEMY","school_type":"private","street":"612 ACADEMY AVE","city":"PROVIDENCE","state":"RI","zip":"02908","grades_low":6,"grades_high":12,"grade_bucket":"High","lat":41.842304,"lon":-71.4458,"source":"NCES_PSS_2021_2022","pss_id":"01257281"}},{"type":"Feature","geometry":{"type":"Point","coordinates":[-71.453252,41.845207]},"properties":{"id":"private_01257317","name":"ST AUGUSTINE SCHOOL","school_type":"private","street":"635 MOUNT PLEASANT AVE","city":"PROVIDENCE","state":"RI","zip":"02908","grades_low":5,"grades_high":8,"grade_bucket":"Elementary","lat":41.845207,"lon":-71.453252,"source":"NCES_PSS_2021_2022","pss_id":"01257317"}},{"type":"Feature","geometry":{"type":"Point","coordinates":[-71.419621,41.83245]},"properties":{"id":"private_01257394","name":"ST PATRICK ACADEMY","school_type":"private","street":"244 SMITH ST","city":"PROVIDENCE","state":"RI","zip":"02908","grades_low":9,"grades_high":12,"grade_bucket":"High","lat":41.83245,"lon":-71.419621,"source":"NCES_PSS_2021_2022","pss_id":"01257394"}},{"type":"Feature","geometry":{"type":"Point","coordinates":[-71.436531,41.84089]},"properties":{"id":"private_01257408","name":"ST PIUS V SCHOOL","school_type":"private","street":"49 ELMHURST AVE","city":"PROVIDENCE","state":"RI","zip":"02908","grades_low":0,"grades_high":8,"grade_bucket":"Elementary","lat":41.84089,"lon":-71.436531,"source":"NCES_PSS_2021_2022","pss_id":"01257408"}},{"type":"Feature","geometry":{"type":"Point","coordinates":[-71.467631,41.83665]},"properties":{"id":"private_01257452","name":"ST THOMAS REGIONAL SCHOOL","school_type":"private","street":"15 EDENDALE AVE","city":"PROVIDENCE","state":"RI","zip":"02911","grades_low":0,"grades_high":8,"grade_bucket":"Elementary","lat":41.83665,"lon":-71.467631,"source":"NCES_PSS_2021_2022","pss_id":"01257452"}},{"type":"Feature","geometry":{"type":"Point","coordinates":[-71.365161,41.79107]},"properties":{"id":"private_01257474","name":"ST MARY ACADEMY-BAY VIEW","school_type":"private","street":"3070 PAWTUCKET AVE","city":"RIVERSIDE","state":"RI","zip":"02915","grades_low":0,"grades_high":12,"grade_bucket":"High","lat":41.79107,"lon":-71.365161,"source":"NCES_PSS_2021_2022","pss_id":"01257474"}},{"type":"Feature","geometry":{"type":"Point","coordinates":[-71.35033,41.844221]},"properties":{"id":"private_01257496","name":"ST MARGARET SCHOOL","school_type":"private","street":"42 BISHOP AVE","city":"RUMFORD","state":"RI","zip":"02916","grades_low":0,"grades_high":8,"grade_bucket":"Elementary","lat":41.844221,"lon":-71.35033,"source":"NCES_PSS_2021_2022","pss_id":"01257496"}},{"type":"Feature","geometry":{"type":"Point","coordinates":[-71.396186,41.705595]},"properties":{"id":"private_01257543","name":"BISHOP HENDRICKEN HIGH SCHOOL","school_type":"private","street":"2615 WARWICK AVE","city":"WARWICK","state":"RI","zip":"02889","grades_low":8,"grades_high":12,"grade_bucket":"High","lat":41.705595,"lon":-71.396186,"source":"NCES_PSS_2021_2022","pss_id":"01257543"}},{"type":"Feature","geometry":{"type":"Point","coordinates":[-71.391791,41.71231]},"properties":{"id":"private_01257576","name":"ST KEVIN SCHOOL","school_type":"private","street":"39 CATHEDRAL RD","city":"WARWICK","state":"RI","zip":"02889","grades_low":0,"grades_high":8,"grade_bucket":"Elementary","lat":41.71231,"lon":-71.391791,"source":"NCES_PSS_2021_2022","pss_id":"01257576"}},{"type":"Feature","geometry":{"type":"Point","coordinates":[-71.392528,41.75455]},"properties":{"id":"private_01257587","name":"ST PETER SCHOOL","school_type":"private","street":"120 MAYFAIR RD","city":"WARWICK","state":"RI","zip":"02888","grades_low":0,"grades_high":8,"grade_bucket":"Elementary","lat":41.75455,"lon":-71.392528,"source":"NCES_PSS_2021_2022","pss_id":"01257587"}},{"type":"Feature","geometry":{"type":"Point","coordinates":[-71.492663,41.725433]},"properties":{"id":"private_01257656","name":"ST JOSEPH SCHOOL","school_type":"private","street":"850 WAKEFIELD ST","city":"WEST WARWICK","state":"RI","zip":"02893","grades_low":0,"grades_high":8,"grade_bucket":"Elementary","lat":41.725433,"lon":-71.492663,"source":"NCES_PSS_2021_2022","pss_id":"01257656"}},{"type":"Feature","geometry":{"type":"Point","coordinates":[-71.479924,42.002993]},"properties":{"id":"private_01257689","name":"GOOD SHEPHERD CATHOLIC SCHOOL","school_type":"private","street":"1210 MENDON RD","city":"WOONSOCKET","state":"RI","zip":"02895","grades_low":0,"grades_high":8,"grade_bucket":"Elementary","lat":42.002993,"lon":-71.479924,"source":"NCES_PSS_2021_2022","pss_id":"01257689"}},{"type":"Feature","geometry":{"type":"Point","coordinates":[-71.339488,41.750816]},"properties":{"id":"private_01257769","name":"ST LUKE'S SCHOOL","school_type":"private","street":"10 WALDRON AVE","city":"BARRINGTON","state":"RI","zip":"02806","grades_low":0,"grades_high":8,"grade_bucket":"Elementary","lat":41.750816,"lon":-71.339488,"source":"NCES_PSS_2021_2022","pss_id":"01257769"}},{"type":"Feature","geometry":{"type":"Point","coordinates":[-71.301651,41.48547]},"properties":{"id":"private_01257882","name":"ST MICHAELS COUNTRY DAY SCHOOL","school_type":"private","street":"180 RHODE ISLAND AVE","city":"NEWPORT","state":"RI","zip":"02840","grades_low":0,"grades_high":8,"grade_bucket":"Elementary","lat":41.48547,"lon":-71.301651,"source":"NCES_PSS_2021_2022","pss_id":"01257882"}},{"type":"Feature","geometry":{"type":"Point","coordinates":[-71.324453,41.749423]},"properties":{"id":"private_01257907","name":"ST ANDREWS SCHOOL","school_type":"private","street":"63 FEDERAL RD","city":"BARRINGTON","state":"RI","zip":"28062","grades_low":6,"grades_high":12,"grade_bucket":"High","lat":41.749423,"lon":-71.324453,"source":"NCES_PSS_2021_2022","pss_id":"01257907"}},{"type":"Feature","geometry":{"type":"Point","coordinates":[-71.251871,41.552581]},"properties":{"id":"private_01257951","name":"THE PENNFIELD SCHOOL","school_type":"private","street":"110 SANDY POINT AVE","city":"PORTSMOUTH","state":"RI","zip":"02871","grades_low":0,"grades_high":8,"grade_bucket":"Elementary","lat":41.552581,"lon":-71.251871,"source":"NCES_PSS_2021_2022","pss_id":"01257951"}},{"type":"Feature","geometry":{"type":"Point","coordinates":[-71.392714,41.843953]},"properties":{"id":"private_01257984","name":"PROVIDENCE HEBREW DAY SCHOOL","school_type":"private","street":"450 ELMGROVE AVE","city":"PROVIDENCE","state":"RI","zip":"29063","grades_low":0,"grades_high":12,"grade_bucket":"High","lat":41.843953,"lon":-71.392714,"source":"NCES_PSS_2021_2022","pss_id":"01257984"}},{"type":"Feature","geometry":{"type":"Point","coordinates":[-71.623721,41.91569]},"properties":{"id":"private_01258037","name":"HARMONY HILL SCHOOL","school_type":"private","street":"63 HARMONY HILL RD","city":"CHEPACHET","state":"RI","zip":"02814","grades_low":5,"grades_high":12,"grade_bucket":"High","lat":41.91569,"lon":-71.623721,"source":"NCES_PSS_2021_2022","pss_id":"01258037"}},{"type":"Feature","geometry":{"type":"Point","coordinates":[-71.353497,41.816891]},"properties":{"id":"private_01258059","name":"PROVIDENCE COUNTRY DAY SCHOOL","school_type":"private","street":"660 WATERMAN AVE","city":"EAST PROVIDENCE","state":"RI","zip":"02914","grades_low":0,"grades_high":12,"grade_bucket":"High","lat":41.816891,"lon":-71.353497,"source":"NCES_PSS_2021_2022","pss_id":"01258059"}},{"type":"Feature","geometry":{"type":"Point","coordinates":[-71.398151,41.82907]},"properties":{"id":"private_01258081","name":"WHEELER SCHOOL","school_type":"private","street":"216 HOPE ST","city":"PROVIDENCE","state":"RI","zip":"02906","grades_low":0,"grades_high":12,"grade_bucket":"High","lat":41.82907,"lon":-71.398151,"source":"NCES_PSS_2021_2022","pss_id":"01258081"}},{"type":"Feature","geometry":{"type":"Point","coordinates":[-71.385009,41.83483]},"properties":{"id":"private_01258128","name":"SCHOOL ONE","school_type":"private","street":"220 UNIVERSITY AVE","city":"PROVIDENCE","state":"RI","zip":"29065","grades_low":9,"grades_high":12,"grade_bucket":"High","lat":41.83483,"lon":-71.385009,"source":"NCES_PSS_2021_2022","pss_id":"01258128"}},{"type":"Feature","geometry":{"type":"Point","coordinates":[-71.405412,41.801248]},"properties":{"id":"private_01258219","name":"THE GRACE SCHOOL","school_type":"private","street":"1000 EDDY ST","city":"PROVIDENCE","state":"RI","zip":"02905","grades_low":5,"grades_high":8,"grade_bucket":"Elementary","lat":41.801248,"lon":-71.405412,"source":"NCES_PSS_2021_2022","pss_id":"01258219"}},{"type":"Feature","geometry":{"type":"Point","coordinates":[-71.386681,41.83523]},"properties":{"id":"private_01258241","name":"MONTESSORI CHILDRENS HOUSE","school_type":"private","street":"518 LLOYD AVE","city":"PROVIDENCE","state":"RI","zip":"02906","grades_low":0,"grades_high":3,"grade_bucket":"Elementary","lat":41.83523,"lon":-71.386681,"source":"NCES_PSS_2021_2022","pss_id":"01258241"}},{"type":"Feature","geometry":{"type":"Point","coordinates":[-71.269856,41.601155]},"properties":{"id":"private_01921701","name":"PORTSMOUTH ABBEY SCHOOL","school_type":"private","street":"285 CORYS LN","city":"PORTSMOUTH","state":"RI","zip":"02871","grades_low":9,"grades_high":12,"grade_bucket":"High","lat":41.601155,"lon":-71.269856,"source":"NCES_PSS_2021_2022","pss_id":"01921701"}},{"type":"Feature","geometry":{"type":"Point","coordinates":[-71.501031,41.99463]},"properties":{"id":"private_01921712","name":"MOUNT ST CHARLES ACADEMY","school_type":"private","street":"800 LOGEE ST","city":"WOONSOCKET","state":"RI","zip":"02895","grades_low":6,"grades_high":12,"grade_bucket":"High","lat":41.99463,"lon":-71.501031,"source":"NCES_PSS_2021_2022","pss_id":"01921712"}},{"type":"Feature","geometry":{"type":"Point","coordinates":[-71.327399,41.755976]},"properties":{"id":"private_01924713","name":"BARRINGTON CHRISTIAN ACADEMY","school_type":"private","street":"9 OLD COUNTY ROAD","city":"BARRINGTON","state":"RI","zip":"02806","grades_low":5,"grades_high":12,"grade_bucket":"High","lat":41.755976,"lon":-71.327399,"source":"NCES_PSS_2021_2022","pss_id":"01924713"}},{"type":"Feature","geometry":{"type":"Point","coordinates":[-71.571891,41.6618]},"properties":{"id":"private_02055364","name":"PATHWAYS STRATEGIC TEACHING CENTER","school_type":"private","street":"75 CENTRE OF NEW ENGLAND BLVD","city":"COVENTRY","state":"RI","zip":"02816","grades_low":2,"grades_high":12,"grade_bucket":"High","lat":41.6618,"lon":-71.571891,"source":"NCES_PSS_2021_2022","pss_id":"02055364"}},{"type":"Feature","geometry":{"type":"Point","coordinates":[-71.396332,41.841527]},"properties":{"id":"private_02055411","name":"JEWISH COMMUNITY DAY SCHOOL OF RHODE ISLAND","school_type":"private","street":"85 TAFT AVE","city":"PROVIDENCE","state":"RI","zip":"02906","grades_low":0,"grades_high":5,"grade_bucket":"Elementary","lat":41.841527,"lon":-71.396332,"source":"NCES_PSS_2021_2022","pss_id":"02055411"}},{"type":"Feature","geometry":{"type":"Point","coordinates":[-71.472291,41.61542]},"properties":{"id":"private_02055488","name":"WEST BAY CHRISTIAN ACADEMY (ELEMENTARY)","school_type":"private","street":"475 SCHOOL ST","city":"NORTH KINGSTOWN","state":"RI","zip":"02852","grades_low":0,"grades_high":8,"grade_bucket":"Elementary","lat":41.61542,"lon":-71.472291,"source":"NCES_PSS_2021_2022","pss_id":"02055488"}},{"type":"Feature","geometry":{"type":"Point","coordinates":[-71.34786,41.848284]},"properties":{"id":"private_A0109108","name":"THE WOLF SCHOOL","school_type":"private","street":"215 FERRIS AVE","city":"RUMFORD","state":"RI","zip":"02916","grades_low":2,"grades_high":8,"grade_bucket":"Elementary","lat":41.848284,"lon":-71.34786,"source":"NCES_PSS_2021_2022","pss_id":"A0109108"}},{"type":"Feature","geometry":{"type":"Point","coordinates":[-71.293841,41.75341]},"properties":{"id":"private_A0302841","name":"MONTESSORI CENTRE OF BARRINGTON","school_type":"private","street":"303 SOWAMS RD","city":"BARRINGTON","state":"RI","zip":"02806","grades_low":0,"grades_high":5,"grade_bucket":"Elementary","lat":41.75341,"lon":-71.293841,"source":"NCES_PSS_2021_2022","pss_id":"A0302841"}},{"type":"Feature","geometry":{"type":"Point","coordinates":[-71.450031,41.83239]},"properties":{"id":"private_A0302842","name":"MOUNT PLEASANT ACADEMY","school_type":"private","street":"1246 CHALKSTONE AVE","city":"PROVIDENCE","state":"RI","zip":"02908","grades_low":1,"grades_high":8,"grade_bucket":"Elementary","lat":41.83239,"lon":-71.450031,"source":"NCES_PSS_2021_2022","pss_id":"A0302842"}},{"type":"Feature","geometry":{"type":"Point","coordinates":[-71.514011,42.002431]},"properties":{"id":"private_A0302844","name":"HILLSIDE ALTERNATIVE PROGRAM","school_type":"private","street":"1401 MAIN ST","city":"WOONSOCKET","state":"RI","zip":"02895","grades_low":1,"grades_high":12,"grade_bucket":"High","lat":42.002431,"lon":-71.514011,"source":"NCES_PSS_2021_2022","pss_id":"A0302844"}},{"type":"Feature","geometry":{"type":"Point","coordinates":[-71.433848,41.755546]},"properties":{"id":"private_A0302846","name":"PRECIOUS ANGELS CHILD CARE CENTER","school_type":"private","street":"20 JEFFERSON PARK RD","city":"WARWICK","state":"RI","zip":"02888","grades_low":0,"grades_high":0,"grade_bucket":"Elementary","lat":41.755546,"lon":-71.433848,"source":"NCES_PSS_2021_2022","pss_id":"A0302846"}},{"type":"Feature","geometry":{"type":"Point","coordinates":[-71.471011,41.70139]},"properties":{"id":"private_A0302848","name":"PROGRESSIVE LEARNING FOR CHILDREN","school_type":"private","street":"189 TOLL GATE RD","city":"WARWICK","state":"RI","zip":"02886","grades_low":0,"grades_high":5,"grade_bucket":"Elementary","lat":41.70139,"lon":-71.471011,"source":"NCES_PSS_2021_2022","pss_id":"A0302848"}},{"type":"Feature","geometry":{"type":"Point","coordinates":[-71.490299,41.645516]},"properties":{"id":"private_A0302854","name":"SWEET PEAS VILLAGE EARLY CHILDHOOD SCHOOL","school_type":"private","street":"836 MIDDLE RD","city":"EAST GREENWICH","state":"RI","zip":"02818","grades_low":0,"grades_high":5,"grade_bucket":"Elementary","lat":41.645516,"lon":-71.490299,"source":"NCES_PSS_2021_2022","pss_id":"A0302854"}},{"type":"Feature","geometry":{"type":"Point","coordinates":[-71.372846,41.801183]},"properties":{"id":"private_A0302857","name":"GORDON SCHOOL","school_type":"private","street":"45 MAXFIELD AVE","city":"EAST PROVIDENCE","state":"RI","zip":"02914","grades_low":0,"grades_high":8,"grade_bucket":"Elementary","lat":41.801183,"lon":-71.372846,"source":"NCES_PSS_2021_2022","pss_id":"A0302857"}},{"type":"Feature","geometry":{"type":"Point","coordinates":[-71.514011,42.002431]},"properties":{"id":"private_A0503185","name":"ACTION BASED ENTERPRISES SCHOOL","school_type":"private","street":"PO BOX 19038","city":"JOHNSTON","state":"RI","zip":"02919","grades_low":1,"grades_high":8,"grade_bucket":"Elementary","lat":42.002431,"lon":-71.514011,"source":"NCES_PSS_2021_2022","pss_id":"A0503185"}},{"type":"Feature","geometry":{"type":"Point","coordinates":[-71.4392,41.488263]},"properties":{"id":"private_A0503195","name":"QUEST MONTESSORI SCHOOL","school_type":"private","street":"1150 BOSTON NECK RD","city":"NARRAGANSETT","state":"RI","zip":"02882","grades_low":0,"grades_high":8,"grade_bucket":"Elementary","lat":41.488263,"lon":-71.4392,"source":"NCES_PSS_2021_2022","pss_id":"A0503195"}},{"type":"Feature","geometry":{"type":"Point","coordinates":[-71.491541,41.72399]},"properties":{"id":"private_A0702042","name":"ISLAMIC SCHOOL OF RHODE ISLAND","school_type":"private","street":"840 PROVIDENCE ST","city":"WEST WARWICK","state":"RI","zip":"02893","grades_low":0,"grades_high":8,"grade_bucket":"Elementary","lat":41.72399,"lon":-71.491541,"source":"NCES_PSS_2021_2022","pss_id":"A0702042"}},{"type":"Feature","geometry":{"type":"Point","coordinates":[-71.477752,41.442631]},"properties":{"id":"private_A0702044","name":"MONSIGNOR MATTHEW CLARKE CATHOLIC REGIONAL SCHOOL","school_type":"private","street":"5074 TOWER HILL RD","city":"WAKEFIELD","state":"RI","zip":"02879","grades_low":0,"grades_high":8,"grade_bucket":"Elementary","lat":41.442631,"lon":-71.477752,"source":"NCES_PSS_2021_2022","pss_id":"A0702044"}},{"type":"Feature","geometry":{"type":"Point","coordinates":[-71.469601,41.77064]},"properties":{"id":"private_A1102030","name":"MISS LEE ANNS EARLY LEARNING CENTER","school_type":"private","street":"180 OAKLAWN AVE","city":"CRANSTON","state":"RI","zip":"02920","grades_low":0,"grades_high":5,"grade_bucket":"Elementary","lat":41.77064,"lon":-71.469601,"source":"NCES_PSS_2021_2022","pss_id":"A1102030"}},{"type":"Feature","geometry":{"type":"Point","coordinates":[-71.49376,41.60761]},"properties":{"id":"private_A1192087","name":"MONTESSORI OF GREENWICH BAY","school_type":"private","street":"3285 S COUNTY TRL","city":"EAST GREENWICH","state":"RI","zip":"02818","grades_low":0,"grades_high":5,"grade_bucket":"Elementary","lat":41.60761,"lon":-71.49376,"source":"NCES_PSS_2021_2022","pss_id":"A1192087"}},{"type":"Feature","geometry":{"type":"Point","coordinates":[-71.473339,41.450917]},"properties":{"id":"private_A1303113","name":"BRADLEY SCHOOL-SOUTH","school_type":"private","street":"31 FAIRFIELD WAY","city":"WAKEFIELD","state":"RI","zip":"02879","grades_low":1,"grades_high":12,"grade_bucket":"High","lat":41.450917,"lon":-71.473339,"source":"NCES_PSS_2021_2022","pss_id":"A1303113"}},{"type":"Feature","geometry":{"type":"Point","coordinates":[-71.382968,41.833081]},"properties":{"id":"private_A1503512","name":"LINCOLN SCHOOL","school_type":"private","street":"301 BUTLER AVE","city":"PROVIDENCE","state":"RI","zip":"02906","grades_low":0,"grades_high":12,"grade_bucket":"High","lat":41.833081,"lon":-71.382968,"source":"NCES_PSS_2021_2022","pss_id":"A1503512"}},{"type":"Feature","geometry":{"type":"Point","coordinates":[-71.421301,41.82155]},"properties":{"id":"private_A1703255","name":"BRADLEY SCHOOL PROVIDENCE","school_type":"private","street":"130 BROADWAY","city":"PROVIDENCE","state":"RI","zip":"02903","grades_low":6,"grades_high":12,"grade_bucket":"High","lat":41.82155,"lon":-71.421301,"source":"NCES_PSS_2021_2022","pss_id":"A1703255"}},{"type":"Feature","geometry":{"type":"Point","coordinates":[-71.429661,41.69813]},"properties":{"id":"private_A1903991","name":"(CHRISTIAN BRETHREN OF WARWICK, INC. DBA)","school_type":"private","street":"311 BUTTONWOODS AVE","city":"WARWICK","state":"RI","zip":"02886","grades_low":0,"grades_high":0,"grade_bucket":"Elementary","lat":41.69813,"lon":-71.429661,"source":"NCES_PSS_2021_2022","pss_id":"A1903991"}},{"type":"Feature","geometry":{"type":"Point","coordinates":[-71.576413,41.68279]},"properties":{"id":"private_A1903994","name":"FATHER JOHN V. DOYLE SCHOOL","school_type":"private","street":"343 S MAIN ST","city":"COVENTRY","state":"RI","zip":"02816","grades_low":0,"grades_high":8,"grade_bucket":"Elementary","lat":41.68279,"lon":-71.576413,"source":"NCES_PSS_2021_2022","pss_id":"A1903994"}},{"type":"Feature","geometry":{"type":"Point","coordinates":[-71.398625,41.854052]},"properties":{"id":"private_A1904001","name":"OCEAN TIDES SCHOOL","school_type":"private","street":"260 HIGHLAND AVE","city":"PROVIDENCE","state":"RI","zip":"02906","grades_low":9,"grades_high":12,"grade_bucket":"High","lat":41.854052,"lon":-71.398625,"source":"NCES_PSS_2021_2022","pss_id":"A1904001"}},{"type":"Feature","geometry":{"type":"Point","coordinates":[-71.262108,41.546755]},"properties":{"id":"private_A1904003","name":"SEA ROSE MONTESSORI CO-OP","school_type":"private","street":"324 E MAIN ROAD- ST.MARYS CHURCH","city":"PORTSMOUTH","state":"RI","zip":"02871","grades_low":0,"grades_high":3,"grade_bucket":"Elementary","lat":41.546755,"lon":-71.262108,"source":"NCES_PSS_2021_2022","pss_id":"A1904003"}},{"type":"Feature","geometry":{"type":"Point","coordinates":[-71.387931,41.82909]},"properties":{"id":"private_A1990673","name":"THE CROFT SCHOOL","school_type":"private","street":"179 WAYLAND AVE FL 2","city":"PROVIDENCE","state":"RI","zip":"02906","grades_low":5,"grades_high":3,"grade_bucket":"Elementary","lat":41.82909,"lon":-71.387931,"source":"NCES_PSS_2021_2022","pss_id":"A1990673"}},{"type":"Feature","geometry":{"type":"Point","coordinates":[-71.41527,41.801991]},"properties":{"id":"private_A1992017","name":"BISHOP MCVINNEY CATHOLIC REGIONAL SCHOOL","school_type":"private","street":"155 GORDON AVE","city":"PROVIDENCE","state":"RI","zip":"02905","grades_low":0,"grades_high":8,"grade_bucket":"Elementary","lat":41.801991,"lon":-71.41527,"source":"NCES_PSS_2021_2022","pss_id":"A1992017"}},{"type":"Feature","geometry":{"type":"Point","coordinates":[-71.17153,41.50884]},"properties":{"id":"private_A2103493","name":"LITTLE PEEPS MONTESSORI NATURSKOLA","school_type":"private","street":"PO BOX 323","city":"LITTLE COMPTON","state":"RI","zip":"02837","grades_low":0,"grades_high":5,"grade_bucket":"Elementary","lat":41.50884,"lon":-71.17153,"source":"NCES_PSS_2021_2022","pss_id":"A2103493"}},{"type":"Feature","geometry":{"type":"Point","coordinates":[-71.457291,41.415165]},"properties":{"id":"private_A2103494","name":"MIDDLEBRIDGE SCHOOL","school_type":"private","street":"333 OCEAN RD","city":"NARRAGANSETT","state":"RI","zip":"02882","grades_low":9,"grades_high":12,"grade_bucket":"High","lat":41.415165,"lon":-71.457291,"source":"NCES_PSS_2021_2022","pss_id":"A2103494"}},{"type":"Feature","geometry":{"type":"Point","coordinates":[-71.400258,41.776704]},"properties":{"id":"private_A2103496","name":"ST PAUL SCHOOL","school_type":"private","street":"1789 BROAD ST","city":"CRANSTON","state":"RI","zip":"02905","grades_low":0,"grades_high":8,"grade_bucket":"Elementary","lat":41.776704,"lon":-71.400258,"source":"NCES_PSS_2021_2022","pss_id":"A2103496"}},{"type":"Feature","geometry":{"type":"Point","coordinates":[-71.431866,41.707692]},"properties":{"id":"private_A2103502","name":"ST ROSE OF LIMA SCHOOL","school_type":"private","street":"200 BRENTWOOD AVE","city":"WARWICK","state":"RI","zip":"02886","grades_low":0,"grades_high":8,"grade_bucket":"Elementary","lat":41.707692,"lon":-71.431866,"source":"NCES_PSS_2021_2022","pss_id":"A2103502"}},{"type":"Feature","geometry":{"type":"Point","coordinates":[-71.542751,41.892804]},"properties":{"id":"private_A2103504","name":"THE LITTLE VILLAGE SCHOOLHOUSE","school_type":"private","street":"170 PLEASANT VIEW AVE","city":"SMITHFIELD","state":"RI","zip":"02917","grades_low":0,"grades_high":0,"grade_bucket":"Elementary","lat":41.892804,"lon":-71.542751,"source":"NCES_PSS_2021_2022","pss_id":"A2103504"}},{"type":"Feature","geometry":{"type":"Point","coordinates":[-71.706029,41.959135]},"properties":{"id":"private_A9106137","name":"COMMUNITY CHRISTIAN SCHOOL","school_type":"private","street":"113 CHURCH ST","city":"PASCOAG","state":"RI","zip":"02859","grades_low":0,"grades_high":8,"grade_bucket":"Elementary","lat":41.959135,"lon":-71.706029,"source":"NCES_PSS_2021_2022","pss_id":"A9106137"}},{"type":"Feature","geometry":{"type":"Point","coordinates":[-71.416411,41.811134]},"properties":{"id":"private_A9106138","name":"COMMUNITY PREPARATORY SCHOOL","school_type":"private","street":"135 PRAIRIE AVE","city":"PROVIDENCE","state":"RI","zip":"02905","grades_low":4,"grades_high":8,"grade_bucket":"Elementary","lat":41.811134,"lon":-71.416411,"source":"NCES_PSS_2021_2022","pss_id":"A9106138"}},{"type":"Feature","geometry":{"type":"Point","coordinates":[-71.432575,41.691009]},"properties":{"id":"private_A9106139","name":"ELEANOR BRIGGS SCHOOL","school_type":"private","street":"116 LONG ST","city":"WARWICK","state":"RI","zip":"02886","grades_low":1,"grades_high":12,"grade_bucket":"High","lat":41.691009,"lon":-71.432575,"source":"NCES_PSS_2021_2022","pss_id":"A9106139"}},{"type":"Feature","geometry":{"type":"Point","coordinates":[-71.29276,41.525623]},"properties":{"id":"private_A9106141","name":"ALL SAINTS ACADEMY","school_type":"private","street":"915 W MAIN RD","city":"MIDDLETOWN","state":"RI","zip":"02842","grades_low":0,"grades_high":8,"grade_bucket":"Elementary","lat":41.525623,"lon":-71.29276,"source":"NCES_PSS_2021_2022","pss_id":"A9106141"}},{"type":"Feature","geometry":{"type":"Point","coordinates":[-71.469137,41.542957]},"properties":{"id":"private_A9106143","name":"SOUTH COUNTY MONTESSORI SCHOOL","school_type":"private","street":"1239 TOWER HILL RD","city":"NORTH KINGSTOWN","state":"RI","zip":"02852","grades_low":0,"grades_high":3,"grade_bucket":"Elementary","lat":41.542957,"lon":-71.469137,"source":"NCES_PSS_2021_2022","pss_id":"A9106143"}},{"type":"Feature","geometry":{"type":"Point","coordinates":[-71.465519,41.849881]},"properties":{"id":"private_A9106146","name":"GEORGE N HUNT CAMPUS SCHOOL","school_type":"private","street":"440 FRUIT HILL AVE","city":"NORTH PROVIDENCE","state":"RI","zip":"29112","grades_low":2,"grades_high":12,"grade_bucket":"High","lat":41.849881,"lon":-71.465519,"source":"NCES_PSS_2021_2022","pss_id":"A9106146"}},{"type":"Feature","geometry":{"type":"Point","coordinates":[-71.415871,41.91292]},"properties":{"id":"private_A9106148","name":"THE SPURWINK SCHOOL","school_type":"private","street":"365 RIVER RD","city":"LINCOLN","state":"RI","zip":"02865","grades_low":1,"grades_high":12,"grade_bucket":"High","lat":41.91292,"lon":-71.415871,"source":"NCES_PSS_2021_2022","pss_id":"A9106148"}},{"type":"Feature","geometry":{"type":"Point","coordinates":[-71.559156,41.878822]},"properties":{"id":"private_A9503705","name":"OVERBROOK ACADEMY","school_type":"private","street":"60 AUSTIN AVE","city":"GREENVILLE","state":"RI","zip":"02828","grades_low":6,"grades_high":9,"grade_bucket":"High","lat":41.878822,"lon":-71.559156,"source":"NCES_PSS_2021_2022","pss_id":"A9503705"}},{"type":"Feature","geometry":{"type":"Point","coordinates":[-71.421618,41.658869]},"properties":{"id":"private_A9503706","name":"ROCKY HILL COUNTRY DAY SCHOOL","school_type":"private","street":"530 IVES RD","city":"EAST GREENWICH","state":"RI","zip":"02818","grades_low":0,"grades_high":12,"grade_bucket":"High","lat":41.658869,"lon":-71.421618,"source":"NCES_PSS_2021_2022","pss_id":"A9503706"}},{"type":"Feature","geometry":{"type":"Point","coordinates":[-71.422545,41.851758]},"properties":{"id":"private_A9503707","name":"THE SAN MIGUEL SCHOOL","school_type":"private","street":"525 BRANCH AVE","city":"PROVIDENCE","state":"RI","zip":"02904","grades_low":5,"grades_high":8,"grade_bucket":"Elementary","lat":41.851758,"lon":-71.422545,"source":"NCES_PSS_2021_2022","pss_id":"A9503707"}},{"type":"Feature","geometry":{"type":"Point","coordinates":[-71.400191,41.840602]},"properties":{"id":"private_A9503710","name":"THE GRODEN CENTER","school_type":"private","street":"86 MOUNT HOPE AVE","city":"PROVIDENCE","state":"RI","zip":"29061","grades_low":1,"grades_high":12,"grade_bucket":"High","lat":41.840602,"lon":-71.400191,"source":"NCES_PSS_2021_2022","pss_id":"A9503710"}},{"type":"Feature","geometry":{"type":"Point","coordinates":[-71.396936,41.821754]},"properties":{"id":"private_A9703133","name":"FRENCH-AMERICAN SCHOOL OF RHODE ISLAND","school_type":"private","street":"75 JOHN ST","city":"PROVIDENCE","state":"RI","zip":"02906","grades_low":0,"grades_high":8,"grade_bucket":"Elementary","lat":41.821754,"lon":-71.396936,"source":"NCES_PSS_2021_2022","pss_id":"A9703133"}},{"type":"Feature","geometry":{"type":"Point","coordinates":[-71.479924,42.002993]},"properties":{"id":"private_A9704534","name":"GR WOONSOCKET CATHOLIC REGIONAL","school_type":"private","street":"1210 MENDON RD","city":"WOONSOCKET","state":"RI","zip":"02895","grades_low":0,"grades_high":8,"grade_bucket":"Elementary","lat":42.002993,"lon":-71.479924,"source":"NCES_PSS_2021_2022","pss_id":"A9704534"}},{"type":"Feature","geometry":{"type":"Point","coordinates":[-71.491179,41.611831]},"properties":{"id":"private_A9903890","name":"THE STORK'S NEST CHILD ACADEMY - EAST GREENWICH","school_type":"private","street":"3116 S COUNTY TRL","city":"EAST GREENWICH","state":"RI","zip":"02818","grades_low":0,"grades_high":0,"grade_bucket":"Elementary","lat":41.611831,"lon":-71.491179,"source":"NCES_PSS_2021_2022","pss_id":"A9903890"}},{"type":"Feature","geometry":{"type":"Point","coordinates":[-71.330671,41.75684]},"properties":{"id":"private_K9305455","name":"RED BRICK NURSERY SCHOOL","school_type":"private","street":"50 MIDDLE HWY","city":"BARRINGTON","state":"RI","zip":"02806","grades_low":0,"grades_high":5,"grade_bucket":"Elementary","lat":41.75684,"lon":-71.330671,"source":"NCES_PSS_2021_2022","pss_id":"K9305455"}},{"type":"Feature","geometry":{"type":"Point","coordinates":[-71.609639,41.647306]},"properties":{"id":"private_K9305464","name":"GREENWICH VILLAGE SCHOOL","school_type":"private","street":"227 NOOSENECK HILL RD","city":"WEST GREENWICH","state":"RI","zip":"02817","grades_low":0,"grades_high":0,"grade_bucket":"Elementary","lat":41.647306,"lon":-71.609639,"source":"NCES_PSS_2021_2022","pss_id":"K9305464"}},{"type":"Feature","geometry":{"type":"Point","coordinates":[-71.456098,41.64678]},"properties":{"id":"private_K9305471","name":"LITTLE RED HEN PRESCHOOL & KINDERGARTEN","school_type":"private","street":"PO BOX 226","city":"EAST GREENWICH","state":"RI","zip":"02818","grades_low":0,"grades_high":0,"grade_bucket":"Elementary","lat":41.64678,"lon":-71.456098,"source":"NCES_PSS_2021_2022","pss_id":"K9305471"}},{"type":"Feature","geometry":{"type":"Point","coordinates":[-71.354636,41.874969]},"properties":{"id":"private_K9305497","name":"DARLINGTON EARLY CHILDHOOD CENTER","school_type":"private","street":"680 NEWPORT AVE","city":"PAWTUCKET","state":"RI","zip":"02861","grades_low":0,"grades_high":5,"grade_bucket":"Elementary","lat":41.874969,"lon":-71.354636,"source":"NCES_PSS_2021_2022","pss_id":"K9305497"}},{"type":"Feature","geometry":{"type":"Point","coordinates":[-71.372461,41.81817]},"properties":{"id":"private_K9305600","name":"OCEAN STATE MONTESSORI SCHOOL","school_type":"private","street":"100 GROVE AVE","city":"EAST PROVIDENCE","state":"RI","zip":"02914","grades_low":0,"grades_high":6,"grade_bucket":"Elementary","lat":41.81817,"lon":-71.372461,"source":"NCES_PSS_2021_2022","pss_id":"K9305600"}}]}