{"type":"FeatureCollection","features":[{"type":"Feature","geometry":{"type":"Point","coordinates":[-71.427344,41.85091]},"properties":{"id":"public_440000100380","name":"R.I. School for the Deaf","school_type":"public","street":"One Corliss Park","city":"Providence","state":"RI","zip":"02908","grades_high":12,"grade_bucket":"High","lat":41.85091,"lon":-71.427344,"district_geoid":"4400001","district_name":"R.I. Sch for the Deaf","source":"NCES_CCD_2024_2025","nces_id":"440000100380"}},{"type":"Feature","geometry":{"type":"Point","coordinates":[-71.412792,41.806315]},"properties":{"id":"public_440000300121","name":"Metropolitan Career Tech Ctr","school_type":"public","street":"325 Public Street","city":"Providence","state":"RI","zip":"02905","grades_low":9,"grades_high":12,"grade_bucket":"High","lat":41.806315,"lon":-71.412792,"district_geoid":"4400003","district_name":"MET Career and Tech","source":"NCES_CCD_2024_2025","nces_id":"440000300121"}},{"type":"Feature","geometry":{"type":"Point","coordinates":[-71.456978,41.903011]},"properties":{"id":"public_440000400379","name":"Davies Career-Tech High School","school_type":"public","street":"50 Jenckes Hill Road","city":"Lincoln","state":"RI","zip":"02865","grades_low":9,"grades_high":12,"grade_bucket":"High","lat":41.903011,"lon":-71.456978,"district_geoid":"4400004","district_name":"Davies Career and Tech","source":"NCES_CCD_2024_2025","nces_id":"440000400379"}},{"type":"Feature","geometry":{"type":"Point","coordinates":[-71.421303,41.821066]},"properties":{"id":"public_440000500271","name":"Urban Collaborative Program","school_type":"public","street":"75 Carpenter Street","city":"Providence","state":"RI","zip":"02903","grades_low":7,"grades_high":8,"grade_bucket":"Middle","lat":41.821066,"lon":-71.421303,"district_geoid":"4400005","district_name":"Urban Collaborative","source":"NCES_CCD_2024_2025","nces_id":"440000500271"}},{"type":"Feature","geometry":{"type":"Point","coordinates":[-71.387999,41.892346]},"properties":{"id":"public_440000600326","name":"The Learning Community","school_type":"public","street":"21 Lincoln Avenue","city":"Central Falls","state":"RI","zip":"02863","grades_high":8,"grade_bucket":"Elementary","lat":41.892346,"lon":-71.387999,"district_geoid":"4400006","district_name":"Learning Community","source":"NCES_CCD_2024_2025","nces_id":"440000600326"}},{"type":"Feature","geometry":{"type":"Point","coordinates":[-71.51291,42.005136]},"properties":{"id":"public_440000800297","name":"BEACON Charter School","school_type":"public","street":"320 Main Street","city":"Woonsocket","state":"RI","zip":"02895","grades_low":9,"grades_high":12,"grade_bucket":"High","lat":42.005136,"lon":-71.51291,"district_geoid":"4400008","district_name":"Beacon Charter School","source":"NCES_CCD_2024_2025","nces_id":"440000800297"}},{"type":"Feature","geometry":{"type":"Point","coordinates":[-71.511996,42.005706]},"properties":{"id":"public_440000800493","name":"Founders Academy","school_type":"public","street":"1 Social Street","city":"Woonsocket","state":"RI","zip":"02895","grades_low":6,"grades_high":8,"grade_bucket":"Middle","lat":42.005706,"lon":-71.511996,"district_geoid":"4400008","district_name":"Beacon Charter School","source":"NCES_CCD_2024_2025","nces_id":"440000800493"}},{"type":"Feature","geometry":{"type":"Point","coordinates":[-71.396671,41.88822]},"properties":{"id":"public_440001400472","name":"Segue Inst for Learning","school_type":"public","street":"325 Cowden Street","city":"Central Falls","state":"RI","zip":"02863","grades_high":8,"grade_bucket":"Elementary","lat":41.88822,"lon":-71.396671,"district_geoid":"4400014","district_name":"Segue Institute for Learning","source":"NCES_CCD_2024_2025","nces_id":"440001400472"}},{"type":"Feature","geometry":{"type":"Point","coordinates":[-71.396005348401,41.888368025821]},"properties":{"id":"public_440001400551","name":"Segue Institute Learning High","school_type":"public","street":"325 Cowden Street","city":"Central Falls","state":"RI","zip":"02863","grades_low":9,"grades_high":9,"grade_bucket":"High","lat":41.888368025821,"lon":-71.396005348401,"district_geoid":"4400014","district_name":"Segue Institute for Learning","source":"NCES_CCD_2024_2025","nces_id":"440001400551"}},{"type":"Feature","geometry":{"type":"Point","coordinates":[-71.392301,41.90605]},"properties":{"id":"public_440001500473","name":"Blackstone Valley Prep","school_type":"public","street":"291 Broad Street","city":"Cumberland","state":"RI","zip":"02864","grades_high":4,"grade_bucket":"Elementary","lat":41.90605,"lon":-71.392301,"district_geoid":"4400015","district_name":"Blackstone Valley Prep  A RI Mayoral Academy","source":"NCES_CCD_2024_2025","nces_id":"440001500473"}},{"type":"Feature","geometry":{"type":"Point","coordinates":[-71.401954,41.889961]},"properties":{"id":"public_440001500475","name":"Blackstone Valley Prep Jr High","school_type":"public","street":"909 Lonsdale","city":"Central Falls","state":"RI","zip":"02863","grades_low":7,"grades_high":8,"grade_bucket":"Middle","lat":41.889961,"lon":-71.401954,"district_geoid":"4400015","district_name":"Blackstone Valley Prep  A RI Mayoral Academy","source":"NCES_CCD_2024_2025","nces_id":"440001500475"}},{"type":"Feature","geometry":{"type":"Point","coordinates":[-71.391422,41.901106]},"properties":{"id":"public_440001500480","name":"Blackstone Valley Prep E. 2","school_type":"public","street":"52 Broad St.","city":"Cumberland","state":"RI","zip":"02864","grades_high":4,"grade_bucket":"Elementary","lat":41.901106,"lon":-71.391422,"district_geoid":"4400015","district_name":"Blackstone Valley Prep  A RI Mayoral Academy","source":"NCES_CCD_2024_2025","nces_id":"440001500480"}},{"type":"Feature","geometry":{"type":"Point","coordinates":[-71.393425,41.903466]},"properties":{"id":"public_440001500488","name":"Blackstone Valley Prep High","school_type":"public","street":"65 Macondray St.","city":"Cumberland","state":"RI","zip":"02864","grades_low":9,"grades_high":12,"grade_bucket":"High","lat":41.903466,"lon":-71.393425,"district_geoid":"4400015","district_name":"Blackstone Valley Prep  A RI Mayoral Academy","source":"NCES_CCD_2024_2025","nces_id":"440001500488"}},{"type":"Feature","geometry":{"type":"Point","coordinates":[-71.457954,41.978074]},"properties":{"id":"public_440001500496","name":"Blackstone Valley Prep Element","school_type":"public","street":"3357 Mendon Rd.","city":"Cumberland","state":"RI","zip":"02864","grades_high":4,"grade_bucket":"Elementary","lat":41.978074,"lon":-71.457954,"district_geoid":"4400015","district_name":"Blackstone Valley Prep  A RI Mayoral Academy","source":"NCES_CCD_2024_2025","nces_id":"440001500496"}},{"type":"Feature","geometry":{"type":"Point","coordinates":[-71.415972,41.886239]},"properties":{"id":"public_440001500513","name":"Blackstone Valley Prep Upper E","school_type":"public","street":"3 Fairlawn Way","city":"Lincoln","state":"RI","zip":"02865","grades_low":5,"grades_high":6,"grade_bucket":"Elementary","lat":41.886239,"lon":-71.415972,"district_geoid":"4400015","district_name":"Blackstone Valley Prep  A RI Mayoral Academy","source":"NCES_CCD_2024_2025","nces_id":"440001500513"}},{"type":"Feature","geometry":{"type":"Point","coordinates":[-71.682653,41.615638]},"properties":{"id":"public_440001700477","name":"The Greene School","school_type":"public","street":"94 John Potter Road","city":"West Greenwich","state":"RI","zip":"02817","grades_low":9,"grades_high":12,"grade_bucket":"High","lat":41.615638,"lon":-71.682653,"district_geoid":"4400017","district_name":"The Greene School","source":"NCES_CCD_2024_2025","nces_id":"440001700477"}},{"type":"Feature","geometry":{"type":"Point","coordinates":[-71.414939,41.822773]},"properties":{"id":"public_440001800478","name":"Trinity Academy Performing Art","school_type":"public","street":"275 Westminster Street","city":"Providence","state":"RI","zip":"02903","grades_low":5,"grades_high":12,"grade_bucket":"High","lat":41.822773,"lon":-71.414939,"district_geoid":"4400018","district_name":"Trinity Academy for the Performing Arts","source":"NCES_CCD_2024_2025","nces_id":"440001800478"}},{"type":"Feature","geometry":{"type":"Point","coordinates":[-71.415161,41.82255]},"properties":{"id":"public_440001900479","name":"RINI Middle College","school_type":"public","street":"150 Washington Street","city":"Providence","state":"RI","zip":"02903","grades_low":9,"grades_high":12,"grade_bucket":"High","lat":41.82255,"lon":-71.415161,"district_geoid":"4400019","district_name":"Rhode Island Nurses Institute Middle College","source":"NCES_CCD_2024_2025","nces_id":"440001900479"}},{"type":"Feature","geometry":{"type":"Point","coordinates":[-71.456241,41.81742]},"properties":{"id":"public_440002100486","name":"Achievement First Providence","school_type":"public","street":"370 Hartford Avenue","city":"Providence","state":"RI","zip":"02909","grades_high":4,"grade_bucket":"Elementary","lat":41.81742,"lon":-71.456241,"district_geoid":"4400021","district_name":"Achievement First Rhode Island","source":"NCES_CCD_2024_2025","nces_id":"440002100486"}},{"type":"Feature","geometry":{"type":"Point","coordinates":[-71.443305,41.800163]},"properties":{"id":"public_440002100495","name":"Achievement First Iluminar","school_type":"public","street":"85 Garfield Avenue","city":"Cranston","state":"RI","zip":"02920","grades_high":4,"grade_bucket":"Elementary","lat":41.800163,"lon":-71.443305,"district_geoid":"4400021","district_name":"Achievement First Rhode Island","source":"NCES_CCD_2024_2025","nces_id":"440002100495"}},{"type":"Feature","geometry":{"type":"Point","coordinates":[-71.456241,41.81742]},"properties":{"id":"public_440002100515","name":"AF Providence Mayoral Middle","school_type":"public","street":"370 Hartford Avenue","city":"Providence","state":"RI","zip":"02909","grades_low":5,"grades_high":8,"grade_bucket":"Elementary","lat":41.81742,"lon":-71.456241,"district_geoid":"4400021","district_name":"Achievement First Rhode Island","source":"NCES_CCD_2024_2025","nces_id":"440002100515"}},{"type":"Feature","geometry":{"type":"Point","coordinates":[-71.443305,41.800163]},"properties":{"id":"public_440002100527","name":"AF Iluminar Mayoral Middle Sch","school_type":"public","street":"85 Garfield Avenue","city":"Cranston","state":"RI","zip":"02920","grades_low":5,"grades_high":8,"grade_bucket":"Elementary","lat":41.800163,"lon":-71.443305,"district_geoid":"4400021","district_name":"Achievement First Rhode Island","source":"NCES_CCD_2024_2025","nces_id":"440002100527"}},{"type":"Feature","geometry":{"type":"Point","coordinates":[-71.428502,41.803845]},"properties":{"id":"public_440002100533","name":"Achievement First Promesa","school_type":"public","street":"234 Daboll St","city":"Providence","state":"RI","zip":"02907","grades_high":5,"grade_bucket":"Elementary","lat":41.803845,"lon":-71.428502,"district_geoid":"4400021","district_name":"Achievement First Rhode Island","source":"NCES_CCD_2024_2025","nces_id":"440002100533"}},{"type":"Feature","geometry":{"type":"Point","coordinates":[-71.453138,41.807637]},"properties":{"id":"public_440002100538","name":"Achievement First Providence H","school_type":"public","street":"206 Elmwood Ave","city":"Providence","state":"RI","zip":"02907","grades_low":9,"grades_high":12,"grade_bucket":"High","lat":41.807637,"lon":-71.453138,"district_geoid":"4400021","district_name":"Achievement First Rhode Island","source":"NCES_CCD_2024_2025","nces_id":"440002100538"}},{"type":"Feature","geometry":{"type":"Point","coordinates":[-71.456241,41.81742]},"properties":{"id":"public_440002100539","name":"Achievement First Envision Ele","school_type":"public","street":"370 Hartford Ave","city":"Providence","state":"RI","zip":"02909","grades_high":4,"grade_bucket":"Elementary","lat":41.81742,"lon":-71.456241,"district_geoid":"4400021","district_name":"Achievement First Rhode Island","source":"NCES_CCD_2024_2025","nces_id":"440002100539"}},{"type":"Feature","geometry":{"type":"Point","coordinates":[-71.415161,41.82255]},"properties":{"id":"public_440002400483","name":"Sheila Skip Nowell","school_type":"public","street":"150 Washington Street","city":"Providence","state":"RI","zip":"02903","grades_low":9,"grades_high":12,"grade_bucket":"High","lat":41.82255,"lon":-71.415161,"district_geoid":"4400024","district_name":"Sheila Skip Nowell Leadership Academy","source":"NCES_CCD_2024_2025","nces_id":"440002400483"}},{"type":"Feature","geometry":{"type":"Point","coordinates":[-71.411471,41.82292]},"properties":{"id":"public_440002500487","name":"Village Green Virtual","school_type":"public","street":"135 Weybosset Street","city":"Providence","state":"RI","zip":"02903","grades_low":9,"grades_high":12,"grade_bucket":"High","lat":41.82292,"lon":-71.411471,"district_geoid":"4400025","district_name":"Village Green Virtual","source":"NCES_CCD_2024_2025","nces_id":"440002500487"}},{"type":"Feature","geometry":{"type":"Point","coordinates":[-71.405383,41.801206]},"properties":{"id":"public_440002700489","name":"The Hope Academy","school_type":"public","street":"1000 Eddy Street","city":"Providence","state":"RI","zip":"02905","grades_high":8,"grade_bucket":"Elementary","lat":41.801206,"lon":-71.405383,"district_geoid":"4400027","district_name":"The Hope Academy","source":"NCES_CCD_2024_2025","nces_id":"440002700489"}},{"type":"Feature","geometry":{"type":"Point","coordinates":[-71.416421,41.81116]},"properties":{"id":"public_440002800490","name":"SouthSide Elementary Charter","school_type":"public","street":"135 Prairie Ave","city":"Providence","state":"RI","zip":"02905","grades_high":5,"grade_bucket":"Elementary","lat":41.81116,"lon":-71.416421,"district_geoid":"4400028","district_name":"SouthSide Charter School","source":"NCES_CCD_2024_2025","nces_id":"440002800490"}},{"type":"Feature","geometry":{"type":"Point","coordinates":[-71.50308,42.00889]},"properties":{"id":"public_440002900494","name":"RISE Prep Mayoral Academy","school_type":"public","street":"30 Cumberland Street","city":"Woonsocket","state":"RI","zip":"02895","grades_high":8,"grade_bucket":"Elementary","lat":42.00889,"lon":-71.50308,"district_geoid":"4400029","district_name":"RISE Prep Mayoral Academy","source":"NCES_CCD_2024_2025","nces_id":"440002900494"}},{"type":"Feature","geometry":{"type":"Point","coordinates":[-71.503801550468,42.008904327337]},"properties":{"id":"public_440002900548","name":"RISE Prep Mayoral Acad High","school_type":"public","street":"600 Social Street","city":"Woonsocket","state":"RI","zip":"02895","grades_low":9,"grades_high":9,"grade_bucket":"High","lat":42.008904327337,"lon":-71.503801550468,"district_geoid":"4400029","district_name":"RISE Prep Mayoral Academy","source":"NCES_CCD_2024_2025","nces_id":"440002900548"}},{"type":"Feature","geometry":{"type":"Point","coordinates":[-71.320811,41.747017]},"properties":{"id":"public_440003000001","name":"Barrington High School","school_type":"public","street":"220 Lincoln Avenue","city":"Barrington","state":"RI","zip":"02806","grades_low":9,"grades_high":12,"grade_bucket":"High","lat":41.747017,"lon":-71.320811,"district_geoid":"4400030","district_name":"Barrington","source":"NCES_CCD_2024_2025","nces_id":"440003000001"}},{"type":"Feature","geometry":{"type":"Point","coordinates":[-71.332921,41.744419]},"properties":{"id":"public_440003000002","name":"Barrington Middle School","school_type":"public","street":"261 Middle Highway","city":"Barrington","state":"RI","zip":"02806","grades_low":6,"grades_high":8,"grade_bucket":"Middle","lat":41.744419,"lon":-71.332921,"district_geoid":"4400030","district_name":"Barrington","source":"NCES_CCD_2024_2025","nces_id":"440003000002"}},{"type":"Feature","geometry":{"type":"Point","coordinates":[-71.302506,41.753891]},"properties":{"id":"public_440003000003","name":"Hampden Meadows School","school_type":"public","street":"297 New Meadow Road","city":"Barrington","state":"RI","zip":"02806","grades_low":4,"grades_high":5,"grade_bucket":"Elementary","lat":41.753891,"lon":-71.302506,"district_geoid":"4400030","district_name":"Barrington","source":"NCES_CCD_2024_2025","nces_id":"440003000003"}},{"type":"Feature","geometry":{"type":"Point","coordinates":[-71.306138,41.729577]},"properties":{"id":"public_440003000004","name":"Nayatt School","school_type":"public","street":"400 Nayatt Road","city":"Barrington","state":"RI","zip":"02806","grades_high":3,"grade_bucket":"Elementary","lat":41.729577,"lon":-71.306138,"district_geoid":"4400030","district_name":"Barrington","source":"NCES_CCD_2024_2025","nces_id":"440003000004"}},{"type":"Feature","geometry":{"type":"Point","coordinates":[-71.294328,41.757102]},"properties":{"id":"public_440003000005","name":"Sowams Elementary School","school_type":"public","street":"364 Sowams Road","city":"Barrington","state":"RI","zip":"02806","grades_high":3,"grade_bucket":"Elementary","lat":41.757102,"lon":-71.294328,"district_geoid":"4400030","district_name":"Barrington","source":"NCES_CCD_2024_2025","nces_id":"440003000005"}},{"type":"Feature","geometry":{"type":"Point","coordinates":[-71.329766,41.753972]},"properties":{"id":"public_440003000006","name":"Primrose Hill School","school_type":"public","street":"60 Middle Highway","city":"Barrington","state":"RI","zip":"02806","grades_high":3,"grade_bucket":"Elementary","lat":41.753972,"lon":-71.329766,"district_geoid":"4400030","district_name":"Barrington","source":"NCES_CCD_2024_2025","nces_id":"440003000006"}},{"type":"Feature","geometry":{"type":"Point","coordinates":[-71.275077,41.746329]},"properties":{"id":"public_440003100521","name":"Highlander Secondary Charter S","school_type":"public","street":"360 Market Street","city":"Warren","state":"RI","zip":"02885","grades_low":7,"grades_high":12,"grade_bucket":"High","lat":41.746329,"lon":-71.275077,"district_geoid":"4400031","district_name":"Highlander","source":"NCES_CCD_2024_2025","nces_id":"440003100521"}},{"type":"Feature","geometry":{"type":"Point","coordinates":[-71.417336,41.799543]},"properties":{"id":"public_440003100524","name":"Highlander Elementary Charter","school_type":"public","street":"42 Lexington Avenue","city":"Providence","state":"RI","zip":"02907","grades_high":6,"grade_bucket":"Elementary","lat":41.799543,"lon":-71.417336,"district_geoid":"4400031","district_name":"Highlander","source":"NCES_CCD_2024_2025","nces_id":"440003100524"}},{"type":"Feature","geometry":{"type":"Point","coordinates":[-71.427507,41.829346]},"properties":{"id":"public_440003200520","name":"Paul Cuffee Lower School","school_type":"public","street":"459 Promenade Street","city":"Providence","state":"RI","zip":"02908","grades_high":5,"grade_bucket":"Elementary","lat":41.829346,"lon":-71.427507,"district_geoid":"4400032","district_name":"Paul Cuffee Charter Sch","source":"NCES_CCD_2024_2025","nces_id":"440003200520"}},{"type":"Feature","geometry":{"type":"Point","coordinates":[-71.436818,41.817306]},"properties":{"id":"public_440003200525","name":"Paul Cuffee Middle School","school_type":"public","street":"30 Barton Street","city":"Providence","state":"RI","zip":"02909","grades_low":6,"grades_high":8,"grade_bucket":"Middle","lat":41.817306,"lon":-71.436818,"district_geoid":"4400032","district_name":"Paul Cuffee Charter Sch","source":"NCES_CCD_2024_2025","nces_id":"440003200525"}},{"type":"Feature","geometry":{"type":"Point","coordinates":[-71.425572,41.797718]},"properties":{"id":"public_440003200526","name":"Paul Cuffee Upper School","school_type":"public","street":"544 Elmwood Avenue","city":"Providence","state":"RI","zip":"02907","grades_low":9,"grades_high":12,"grade_bucket":"High","lat":41.797718,"lon":-71.425572,"district_geoid":"4400032","district_name":"Paul Cuffee Charter Sch","source":"NCES_CCD_2024_2025","nces_id":"440003200526"}},{"type":"Feature","geometry":{"type":"Point","coordinates":[-71.511232,41.499095]},"properties":{"id":"public_440003300225","name":"Kingston Hill Academy","school_type":"public","street":"850 Stony Fort Road","city":"Saunderstown","state":"RI","zip":"02874","grades_high":5,"grade_bucket":"Elementary","lat":41.499095,"lon":-71.511232,"district_geoid":"4400033","district_name":"Kingston Hill Academy","source":"NCES_CCD_2024_2025","nces_id":"440003300225"}},{"type":"Feature","geometry":{"type":"Point","coordinates":[-71.384952,41.868997]},"properties":{"id":"public_440003400226","name":"International Charter School","school_type":"public","street":"334 Pleasant Street","city":"Pawtucket","state":"RI","zip":"02860","grades_high":5,"grade_bucket":"Elementary","lat":41.868997,"lon":-71.384952,"district_geoid":"4400034","district_name":"International Charter","source":"NCES_CCD_2024_2025","nces_id":"440003400226"}},{"type":"Feature","geometry":{"type":"Point","coordinates":[-71.516384,41.494249]},"properties":{"id":"public_440003500245","name":"The Compass School","school_type":"public","street":"537 Old North Road","city":"Kingston","state":"RI","zip":"02881","grades_high":8,"grade_bucket":"Elementary","lat":41.494249,"lon":-71.516384,"district_geoid":"4400035","district_name":"The Compass School","source":"NCES_CCD_2024_2025","nces_id":"440003500245"}},{"type":"Feature","geometry":{"type":"Point","coordinates":[-71.384952,41.868997]},"properties":{"id":"public_440003600246","name":"Blackstone Academy Charter","school_type":"public","street":"334 Pleasant Street","city":"Pawtucket","state":"RI","zip":"02860","grades_low":9,"grades_high":12,"grade_bucket":"High","lat":41.868997,"lon":-71.384952,"district_geoid":"4400036","district_name":"Blackstone Academy","source":"NCES_CCD_2024_2025","nces_id":"440003600246"}},{"type":"Feature","geometry":{"type":"Point","coordinates":[-71.414465,41.821906]},"properties":{"id":"public_440003700519","name":"Charette Charter School","school_type":"public","street":"335 Westminster St.","city":"Providence","state":"RI","zip":"02903","grades_low":9,"grades_high":12,"grade_bucket":"High","lat":41.821906,"lon":-71.414465,"district_geoid":"4400037","district_name":"Charette Charter","source":"NCES_CCD_2024_2025","nces_id":"440003700519"}},{"type":"Feature","geometry":{"type":"Point","coordinates":[-71.416409,41.804523]},"properties":{"id":"public_440003800540","name":"Nuestro Mundo Public Charter S","school_type":"public","street":"17-21 Gordon Avenue","city":"Providence","state":"RI","zip":"02905","grades_high":8,"grade_bucket":"Elementary","lat":41.804523,"lon":-71.416409,"district_geoid":"4400038","district_name":"Nuestro Mundo Public Charter","source":"NCES_CCD_2024_2025","nces_id":"440003800540"}},{"type":"Feature","geometry":{"type":"Point","coordinates":[-71.428545,41.812272]},"properties":{"id":"public_440003900541","name":"Providence Preparatory Charter","school_type":"public","street":"155 Harrison Street","city":"Providence","state":"RI","zip":"02907","grades_low":5,"grades_high":8,"grade_bucket":"Elementary","lat":41.812272,"lon":-71.428545,"district_geoid":"4400039","district_name":"Providence Preparatory Charter","source":"NCES_CCD_2024_2025","nces_id":"440003900541"}},{"type":"Feature","geometry":{"type":"Point","coordinates":[-71.269308,41.687712]},"properties":{"id":"public_440006500009","name":"Mt. Hope High School","school_type":"public","street":"199 Chestnut Street","city":"Bristol","state":"RI","zip":"02809","grades_low":9,"grades_high":12,"grade_bucket":"High","lat":41.687712,"lon":-71.269308,"district_geoid":"4400065","district_name":"Bristol Warren","source":"NCES_CCD_2024_2025","nces_id":"440006500009"}},{"type":"Feature","geometry":{"type":"Point","coordinates":[-71.276937,41.677407]},"properties":{"id":"public_440006500012","name":"Guiteras School","school_type":"public","street":"35 Washington Street","city":"Bristol","state":"RI","zip":"02809","grades_low":2,"grades_high":5,"grade_bucket":"Elementary","lat":41.677407,"lon":-71.276937,"district_geoid":"4400065","district_name":"Bristol Warren","source":"NCES_CCD_2024_2025","nces_id":"440006500012"}},{"type":"Feature","geometry":{"type":"Point","coordinates":[-71.280377,41.698508]},"properties":{"id":"public_440006500016","name":"Rockwell School","school_type":"public","street":"1225 Hope Street","city":"Bristol","state":"RI","zip":"02809","grades_high":5,"grade_bucket":"Elementary","lat":41.698508,"lon":-71.280377,"district_geoid":"4400065","district_name":"Bristol Warren","source":"NCES_CCD_2024_2025","nces_id":"440006500016"}},{"type":"Feature","geometry":{"type":"Point","coordinates":[-71.254071,41.724437]},"properties":{"id":"public_440006500278","name":"Hugh Cole School","school_type":"public","street":"50 Asylum Road","city":"Warren","state":"RI","zip":"02885","grades_high":5,"grade_bucket":"Elementary","lat":41.724437,"lon":-71.254071,"district_geoid":"4400065","district_name":"Bristol Warren","source":"NCES_CCD_2024_2025","nces_id":"440006500278"}},{"type":"Feature","geometry":{"type":"Point","coordinates":[-71.259365,41.729142]},"properties":{"id":"public_440006500282","name":"Kickemuit Middle School","school_type":"public","street":"525 Child Street","city":"Warren","state":"RI","zip":"02885","grades_low":6,"grades_high":8,"grade_bucket":"Middle","lat":41.729142,"lon":-71.259365,"district_geoid":"4400065","district_name":"Bristol Warren","source":"NCES_CCD_2024_2025","nces_id":"440006500282"}},{"type":"Feature","geometry":{"type":"Point","coordinates":[-71.276419,41.671763]},"properties":{"id":"public_440006500468","name":"Colt Andrews School","school_type":"public","street":"570-574 Hope Street","city":"Bristol","state":"RI","zip":"02809","grades_high":5,"grade_bucket":"Elementary","lat":41.671763,"lon":-71.276419,"district_geoid":"4400065","district_name":"Bristol Warren","source":"NCES_CCD_2024_2025","nces_id":"440006500468"}},{"type":"Feature","geometry":{"type":"Point","coordinates":[-71.678179,41.965556]},"properties":{"id":"public_440009000018","name":"Austin T. Levy School","school_type":"public","street":"135 Harrisville Main Street","city":"Harrisville","state":"RI","zip":"02830","grades_high":1,"grade_bucket":"Elementary","lat":41.965556,"lon":-71.678179,"district_geoid":"4400090","district_name":"Burrillville","source":"NCES_CCD_2024_2025","nces_id":"440009000018"}},{"type":"Feature","geometry":{"type":"Point","coordinates":[-71.662387,41.968197]},"properties":{"id":"public_440009000019","name":"Burrillville High School","school_type":"public","street":"425 East Avenue","city":"Harrisville","state":"RI","zip":"02830","grades_low":9,"grades_high":12,"grade_bucket":"High","lat":41.968197,"lon":-71.662387,"district_geoid":"4400090","district_name":"Burrillville","source":"NCES_CCD_2024_2025","nces_id":"440009000019"}},{"type":"Feature","geometry":{"type":"Point","coordinates":[-71.683301,41.969033]},"properties":{"id":"public_440009000022","name":"William Callahan School","school_type":"public","street":"75 Callahan School Street","city":"Harrisville","state":"RI","zip":"02830","grades_low":2,"grades_high":5,"grade_bucket":"Elementary","lat":41.969033,"lon":-71.683301,"district_geoid":"4400090","district_name":"Burrillville","source":"NCES_CCD_2024_2025","nces_id":"440009000022"}},{"type":"Feature","geometry":{"type":"Point","coordinates":[-71.674872,41.938604]},"properties":{"id":"public_440009000057","name":"Steere Farm Elementary School","school_type":"public","street":"915 Steere Farm Road","city":"Pascoag","state":"RI","zip":"02859","grades_low":2,"grades_high":5,"grade_bucket":"Elementary","lat":41.938604,"lon":-71.674872,"district_geoid":"4400090","district_name":"Burrillville","source":"NCES_CCD_2024_2025","nces_id":"440009000057"}},{"type":"Feature","geometry":{"type":"Point","coordinates":[-71.622293,41.981659]},"properties":{"id":"public_440009000383","name":"Burrillville Middle School","school_type":"public","street":"2220 Broncos Highway","city":"Harrisville","state":"RI","zip":"02830","grades_low":6,"grades_high":8,"grade_bucket":"Middle","lat":41.981659,"lon":-71.622293,"district_geoid":"4400090","district_name":"Burrillville","source":"NCES_CCD_2024_2025","nces_id":"440009000383"}},{"type":"Feature","geometry":{"type":"Point","coordinates":[-71.391954,41.889876]},"properties":{"id":"public_440012000024","name":"Calcutt Middle School","school_type":"public","street":"112 Washington Street","city":"Central Falls","state":"RI","zip":"02863","grades_low":6,"grades_high":8,"grade_bucket":"Middle","lat":41.889876,"lon":-71.391954,"district_geoid":"4400120","district_name":"Central Falls","source":"NCES_CCD_2024_2025","nces_id":"440012000024"}},{"type":"Feature","geometry":{"type":"Point","coordinates":[-71.398432,41.885243]},"properties":{"id":"public_440012000025","name":"G. Harold Hunt School","school_type":"public","street":"12 Kendall Street","city":"Central Falls","state":"RI","zip":"02863","grade_bucket":"Other","lat":41.885243,"lon":-71.398432,"district_geoid":"4400120","district_name":"Central Falls","source":"NCES_CCD_2024_2025","nces_id":"440012000025"}},{"type":"Feature","geometry":{"type":"Point","coordinates":[-71.391186,41.886629]},"properties":{"id":"public_440012000026","name":"Central Falls Sr High","school_type":"public","street":"24 Summer Street","city":"Central Falls","state":"RI","zip":"02863","grades_low":9,"grades_high":12,"grade_bucket":"High","lat":41.886629,"lon":-71.391186,"district_geoid":"4400120","district_name":"Central Falls","source":"NCES_CCD_2024_2025","nces_id":"440012000026"}},{"type":"Feature","geometry":{"type":"Point","coordinates":[-71.399228,41.8898]},"properties":{"id":"public_440012000027","name":"Ella Risk School","school_type":"public","street":"949 Dexter Street","city":"Central Falls","state":"RI","zip":"02863","grades_high":5,"grade_bucket":"Elementary","lat":41.8898,"lon":-71.399228,"district_geoid":"4400120","district_name":"Central Falls","source":"NCES_CCD_2024_2025","nces_id":"440012000027"}},{"type":"Feature","geometry":{"type":"Point","coordinates":[-71.396,41.88873]},"properties":{"id":"public_440012000385","name":"Veterans Memorial Elementary","school_type":"public","street":"150 Fuller Avenue","city":"Central Falls","state":"RI","zip":"02863","grades_high":5,"grade_bucket":"Elementary","lat":41.88873,"lon":-71.396,"district_geoid":"4400120","district_name":"Central Falls","source":"NCES_CCD_2024_2025","nces_id":"440012000385"}},{"type":"Feature","geometry":{"type":"Point","coordinates":[-71.389278,41.896848]},"properties":{"id":"public_440012000529","name":"Raices Dual Language Academy","school_type":"public","street":"135 Hunt street","city":"Central Falls","state":"RI","zip":"02863","grades_high":5,"grade_bucket":"Elementary","lat":41.896848,"lon":-71.389278,"district_geoid":"4400120","district_name":"Central Falls","source":"NCES_CCD_2024_2025","nces_id":"440012000529"}},{"type":"Feature","geometry":{"type":"Point","coordinates":[-71.392025,41.889887]},"properties":{"id":"public_440012000542","name":"Raices Upper Dual Language Acd","school_type":"public","street":"112 Washington Street","city":"Central falls","state":"RI","zip":"02863","grades_low":6,"grades_high":8,"grade_bucket":"Middle","lat":41.889887,"lon":-71.392025,"district_geoid":"4400120","district_name":"Central Falls","source":"NCES_CCD_2024_2025","nces_id":"440012000542"}},{"type":"Feature","geometry":{"type":"Point","coordinates":[-71.69645,41.450085]},"properties":{"id":"public_440015000029","name":"Chariho High School","school_type":"public","street":"453 Switch Road","city":"Wood River Junction","state":"RI","zip":"02894","grades_low":9,"grades_high":12,"grade_bucket":"High","lat":41.450085,"lon":-71.69645,"district_geoid":"4400150","district_name":"Chariho","source":"NCES_CCD_2024_2025","nces_id":"440015000029"}},{"type":"Feature","geometry":{"type":"Point","coordinates":[-71.65539,41.449787]},"properties":{"id":"public_440015000030","name":"Charlestown Elementary School","school_type":"public","street":"363 Carolina Back Road","city":"Charlestown","state":"RI","zip":"02813","grades_high":4,"grade_bucket":"Elementary","lat":41.449787,"lon":-71.65539,"district_geoid":"4400150","district_name":"Chariho","source":"NCES_CCD_2024_2025","nces_id":"440015000030"}},{"type":"Feature","geometry":{"type":"Point","coordinates":[-71.791192,41.420569]},"properties":{"id":"public_440015000122","name":"Ashaway Elementary School","school_type":"public","street":"12A Hillside Avenue","city":"Ashaway","state":"RI","zip":"02804","grades_high":4,"grade_bucket":"Elementary","lat":41.420569,"lon":-71.791192,"district_geoid":"4400150","district_name":"Chariho","source":"NCES_CCD_2024_2025","nces_id":"440015000122"}},{"type":"Feature","geometry":{"type":"Point","coordinates":[-71.661828,41.500759]},"properties":{"id":"public_440015000251","name":"Richmond Elementary School","school_type":"public","street":"190 Kingstown Road","city":"Wyoming","state":"RI","zip":"02898","grades_high":4,"grade_bucket":"Elementary","lat":41.500759,"lon":-71.661828,"district_geoid":"4400150","district_name":"Chariho","source":"NCES_CCD_2024_2025","nces_id":"440015000251"}},{"type":"Feature","geometry":{"type":"Point","coordinates":[-71.69765,41.450116]},"properties":{"id":"public_440015000286","name":"Chariho Alternative Learning A","school_type":"public","street":"455C Switch Road","city":"Wood River Junction","state":"RI","zip":"02894","grades_low":1,"grades_high":12,"grade_bucket":"High","lat":41.450116,"lon":-71.69765,"district_geoid":"4400150","district_name":"Chariho","source":"NCES_CCD_2024_2025","nces_id":"440015000286"}},{"type":"Feature","geometry":{"type":"Point","coordinates":[-71.713603,41.510711]},"properties":{"id":"public_440015000349","name":"Hope Valley Elementary School","school_type":"public","street":"15 Thelma Drive","city":"Hope Valley","state":"RI","zip":"02832","grades_low":1,"grades_high":4,"grade_bucket":"Elementary","lat":41.510711,"lon":-71.713603,"district_geoid":"4400150","district_name":"Chariho","source":"NCES_CCD_2024_2025","nces_id":"440015000349"}},{"type":"Feature","geometry":{"type":"Point","coordinates":[-71.698147,41.448607]},"properties":{"id":"public_440015000386","name":"Chariho Regional Middle School","school_type":"public","street":"455B Switch Road","city":"Wood River Junction","state":"RI","zip":"02894","grades_low":5,"grades_high":8,"grade_bucket":"Elementary","lat":41.448607,"lon":-71.698147,"district_geoid":"4400150","district_name":"Chariho","source":"NCES_CCD_2024_2025","nces_id":"440015000386"}},{"type":"Feature","geometry":{"type":"Point","coordinates":[-71.695882,41.448312]},"properties":{"id":"public_440015000457","name":"Chariho Career and Tech Center","school_type":"public","street":"459 Switch Road","city":"Wood River Junction","state":"RI","zip":"02894","grades_low":9,"grades_high":12,"grade_bucket":"High","lat":41.448312,"lon":-71.695882,"district_geoid":"4400150","district_name":"Chariho","source":"NCES_CCD_2024_2025","nces_id":"440015000457"}},{"type":"Feature","geometry":{"type":"Point","coordinates":[-71.695060006905,41.449410873503]},"properties":{"id":"public_440015000502","name":"Hope Valley Elementary Annex","school_type":"public","street":"453 Switch Road, 15 Thelma Drive","city":"Wood River Junction","state":"RI","zip":"02894","grade_bucket":"Other","lat":41.449410873503,"lon":-71.695060006905,"district_geoid":"4400150","district_name":"Chariho","source":"NCES_CCD_2024_2025","nces_id":"440015000502"}},{"type":"Feature","geometry":{"type":"Point","coordinates":[-71.551872,41.71308]},"properties":{"id":"public_440021000031","name":"Blackrock School","school_type":"public","street":"12 LaCasa Drive","city":"Coventry","state":"RI","zip":"02816","grades_high":5,"grade_bucket":"Elementary","lat":41.71308,"lon":-71.551872,"district_geoid":"4400210","district_name":"Coventry","source":"NCES_CCD_2024_2025","nces_id":"440021000031"}},{"type":"Feature","geometry":{"type":"Point","coordinates":[-71.591138,41.684879]},"properties":{"id":"public_440021000032","name":"Coventry High School","school_type":"public","street":"40 Reservoir Road","city":"Coventry","state":"RI","zip":"02816","grades_low":9,"grades_high":12,"grade_bucket":"High","lat":41.684879,"lon":-71.591138,"district_geoid":"4400210","district_name":"Coventry","source":"NCES_CCD_2024_2025","nces_id":"440021000032"}},{"type":"Feature","geometry":{"type":"Point","coordinates":[-71.606578,41.721316]},"properties":{"id":"public_440021000034","name":"Washington Oak School","school_type":"public","street":"801 Read School House Road","city":"Coventry","state":"RI","zip":"02816","grades_high":5,"grade_bucket":"Elementary","lat":41.721316,"lon":-71.606578,"district_geoid":"4400210","district_name":"Coventry","source":"NCES_CCD_2024_2025","nces_id":"440021000034"}},{"type":"Feature","geometry":{"type":"Point","coordinates":[-71.560172,41.673506]},"properties":{"id":"public_440021000035","name":"Hopkins Hill School","school_type":"public","street":"95 Johnson Boulevard","city":"Coventry","state":"RI","zip":"02816","grades_high":5,"grade_bucket":"Elementary","lat":41.673506,"lon":-71.560172,"district_geoid":"4400210","district_name":"Coventry","source":"NCES_CCD_2024_2025","nces_id":"440021000035"}},{"type":"Feature","geometry":{"type":"Point","coordinates":[-71.689278,41.695934]},"properties":{"id":"public_440021000041","name":"Western Coventry School","school_type":"public","street":"4588 Flat River Road","city":"Coventry","state":"RI","zip":"02816","grades_high":5,"grade_bucket":"Elementary","lat":41.695934,"lon":-71.689278,"district_geoid":"4400210","district_name":"Coventry","source":"NCES_CCD_2024_2025","nces_id":"440021000041"}},{"type":"Feature","geometry":{"type":"Point","coordinates":[-71.591138,41.684879]},"properties":{"id":"public_440021000355","name":"The Regional Career and Tech","school_type":"public","street":"40 Reservoir Road","city":"Coventry","state":"RI","zip":"02816","grades_low":9,"grades_high":12,"grade_bucket":"High","lat":41.684879,"lon":-71.591138,"district_geoid":"4400210","district_name":"Coventry","source":"NCES_CCD_2024_2025","nces_id":"440021000355"}},{"type":"Feature","geometry":{"type":"Point","coordinates":[-71.543225,41.677148]},"properties":{"id":"public_440021000365","name":"Tiogue School","school_type":"public","street":"170 East Shore Drive","city":"Coventry","state":"RI","zip":"02816","grades_high":5,"grade_bucket":"Elementary","lat":41.677148,"lon":-71.543225,"district_geoid":"4400210","district_name":"Coventry","source":"NCES_CCD_2024_2025","nces_id":"440021000365"}},{"type":"Feature","geometry":{"type":"Point","coordinates":[-71.561237,41.696637]},"properties":{"id":"public_440021000465","name":"Alan Shawn Feinstein MS of Cov","school_type":"public","street":"15 Foster Drive","city":"Coventry","state":"RI","zip":"02816","grades_low":6,"grades_high":8,"grade_bucket":"Middle","lat":41.696637,"lon":-71.561237,"district_geoid":"4400210","district_name":"Coventry","source":"NCES_CCD_2024_2025","nces_id":"440021000465"}},{"type":"Feature","geometry":{"type":"Point","coordinates":[-71.455005,41.79426]},"properties":{"id":"public_440024000042","name":"Arlington School","school_type":"public","street":"155 Princess Avenue","city":"Cranston","state":"RI","zip":"02920","grades_high":5,"grade_bucket":"Elementary","lat":41.79426,"lon":-71.455005,"district_geoid":"4400240","district_name":"Cranston","source":"NCES_CCD_2024_2025","nces_id":"440024000042"}},{"type":"Feature","geometry":{"type":"Point","coordinates":[-71.437812,41.780367]},"properties":{"id":"public_440024000044","name":"Cranston High School East","school_type":"public","street":"899 Park Avenue","city":"Cranston","state":"RI","zip":"02910","grades_low":9,"grades_high":12,"grade_bucket":"High","lat":41.780367,"lon":-71.437812,"district_geoid":"4400240","district_name":"Cranston","source":"NCES_CCD_2024_2025","nces_id":"440024000044"}},{"type":"Feature","geometry":{"type":"Point","coordinates":[-71.476059,41.771918]},"properties":{"id":"public_440024000045","name":"Cranston High School West","school_type":"public","street":"80 Metropolitan Avenue","city":"Cranston","state":"RI","zip":"02920","grades_low":9,"grades_high":12,"grade_bucket":"High","lat":41.771918,"lon":-71.476059,"district_geoid":"4400240","district_name":"Cranston","source":"NCES_CCD_2024_2025","nces_id":"440024000045"}},{"type":"Feature","geometry":{"type":"Point","coordinates":[-71.445857,41.772399]},"properties":{"id":"public_440024000047","name":"Eden Park School","school_type":"public","street":"180 Oakland Avenue","city":"Cranston","state":"RI","zip":"02910","grades_high":5,"grade_bucket":"Elementary","lat":41.772399,"lon":-71.445857,"district_geoid":"4400240","district_name":"Cranston","source":"NCES_CCD_2024_2025","nces_id":"440024000047"}},{"type":"Feature","geometry":{"type":"Point","coordinates":[-71.396623,41.78131]},"properties":{"id":"public_440024000048","name":"Edgewood Highland","school_type":"public","street":"160 Pawtuxet Avenue","city":"Cranston","state":"RI","zip":"02905","grades_high":5,"grade_bucket":"Elementary","lat":41.78131,"lon":-71.396623,"district_geoid":"4400240","district_name":"Cranston","source":"NCES_CCD_2024_2025","nces_id":"440024000048"}},{"type":"Feature","geometry":{"type":"Point","coordinates":[-71.396384,41.774849]},"properties":{"id":"public_440024000049","name":"Edward S. Rhodes School","school_type":"public","street":"160 Shaw Avenue","city":"Cranston","state":"RI","zip":"02905","grades_high":5,"grade_bucket":"Elementary","lat":41.774849,"lon":-71.396384,"district_geoid":"4400240","district_name":"Cranston","source":"NCES_CCD_2024_2025","nces_id":"440024000049"}},{"type":"Feature","geometry":{"type":"Point","coordinates":[-71.451621,41.761859]},"properties":{"id":"public_440024000050","name":"Garden City School","school_type":"public","street":"70 Plantation Drive","city":"Cranston","state":"RI","zip":"02920","grades_high":5,"grade_bucket":"Elementary","lat":41.761859,"lon":-71.451621,"district_geoid":"4400240","district_name":"Cranston","source":"NCES_CCD_2024_2025","nces_id":"440024000050"}},{"type":"Feature","geometry":{"type":"Point","coordinates":[-71.450343,41.798408]},"properties":{"id":"public_440024000051","name":"Gladstone Street School","school_type":"public","street":"50 Gladstone Street","city":"Cranston","state":"RI","zip":"02920","grades_high":5,"grade_bucket":"Elementary","lat":41.798408,"lon":-71.450343,"district_geoid":"4400240","district_name":"Cranston","source":"NCES_CCD_2024_2025","nces_id":"440024000051"}},{"type":"Feature","geometry":{"type":"Point","coordinates":[-71.46776,41.756472]},"properties":{"id":"public_440024000052","name":"Glen Hills School","school_type":"public","street":"50 Glen Hills Drive","city":"Cranston","state":"RI","zip":"02920","grades_high":5,"grade_bucket":"Elementary","lat":41.756472,"lon":-71.46776,"district_geoid":"4400240","district_name":"Cranston","source":"NCES_CCD_2024_2025","nces_id":"440024000052"}},{"type":"Feature","geometry":{"type":"Point","coordinates":[-71.452286,41.786231]},"properties":{"id":"public_440024000053","name":"Hugh B. Bain Middle School","school_type":"public","street":"135 Gansett Avenue","city":"Cranston","state":"RI","zip":"02910","grades_low":6,"grades_high":8,"grade_bucket":"Middle","lat":41.786231,"lon":-71.452286,"district_geoid":"4400240","district_name":"Cranston","source":"NCES_CCD_2024_2025","nces_id":"440024000053"}},{"type":"Feature","geometry":{"type":"Point","coordinates":[-71.482771,41.746638]},"properties":{"id":"public_440024000059","name":"Oak Lawn School","school_type":"public","street":"36 Stoneham Street","city":"Cranston","state":"RI","zip":"02920","grades_high":5,"grade_bucket":"Elementary","lat":41.746638,"lon":-71.482771,"district_geoid":"4400240","district_name":"Cranston","source":"NCES_CCD_2024_2025","nces_id":"440024000059"}},{"type":"Feature","geometry":{"type":"Point","coordinates":[-71.416216,41.772608]},"properties":{"id":"public_440024000060","name":"Park View Middle School","school_type":"public","street":"25 Park View Boulevard","city":"Cranston","state":"RI","zip":"02910","grades_low":6,"grades_high":8,"grade_bucket":"Middle","lat":41.772608,"lon":-71.416216,"district_geoid":"4400240","district_name":"Cranston","source":"NCES_CCD_2024_2025","nces_id":"440024000060"}},{"type":"Feature","geometry":{"type":"Point","coordinates":[-71.447325,41.788941]},"properties":{"id":"public_440024000063","name":"Stadium School","school_type":"public","street":"100 Crescent Avenue","city":"Cranston","state":"RI","zip":"02910","grades_high":5,"grade_bucket":"Elementary","lat":41.788941,"lon":-71.447325,"district_geoid":"4400240","district_name":"Cranston","source":"NCES_CCD_2024_2025","nces_id":"440024000063"}},{"type":"Feature","geometry":{"type":"Point","coordinates":[-71.484148,41.787225]},"properties":{"id":"public_440024000064","name":"Stone Hill School","school_type":"public","street":"21 Village Avenue","city":"Cranston","state":"RI","zip":"02920","grades_high":5,"grade_bucket":"Elementary","lat":41.787225,"lon":-71.484148,"district_geoid":"4400240","district_name":"Cranston","source":"NCES_CCD_2024_2025","nces_id":"440024000064"}},{"type":"Feature","geometry":{"type":"Point","coordinates":[-71.47714,41.775176]},"properties":{"id":"public_440024000067","name":"Western Hills Middle School","school_type":"public","street":"400 Phenix Avenue","city":"Cranston","state":"RI","zip":"02920","grades_low":6,"grades_high":8,"grade_bucket":"Middle","lat":41.775176,"lon":-71.47714,"district_geoid":"4400240","district_name":"Cranston","source":"NCES_CCD_2024_2025","nces_id":"440024000067"}},{"type":"Feature","geometry":{"type":"Point","coordinates":[-71.430684,41.780915]},"properties":{"id":"public_440024000068","name":"W. R. Dutemple School","school_type":"public","street":"32 Garden Street","city":"Cranston","state":"RI","zip":"02910","grades_high":5,"grade_bucket":"Elementary","lat":41.780915,"lon":-71.430684,"district_geoid":"4400240","district_name":"Cranston","source":"NCES_CCD_2024_2025","nces_id":"440024000068"}},{"type":"Feature","geometry":{"type":"Point","coordinates":[-71.458847,41.772312]},"properties":{"id":"public_440024000069","name":"Woodridge School","school_type":"public","street":"401 Budlong Road","city":"Cranston","state":"RI","zip":"02920","grades_high":5,"grade_bucket":"Elementary","lat":41.772312,"lon":-71.458847,"district_geoid":"4400240","district_name":"Cranston","source":"NCES_CCD_2024_2025","nces_id":"440024000069"}},{"type":"Feature","geometry":{"type":"Point","coordinates":[-71.461082,41.739369]},"properties":{"id":"public_440024000229","name":"Apprenticeship Exploration Sch","school_type":"public","street":"4 Sharpe Drive","city":"Cranston","state":"RI","zip":"02920","grades_low":9,"grades_high":12,"grade_bucket":"High","lat":41.739369,"lon":-71.461082,"district_geoid":"4400240","district_name":"Cranston","source":"NCES_CCD_2024_2025","nces_id":"440024000229"}},{"type":"Feature","geometry":{"type":"Point","coordinates":[-71.530183,41.776368]},"properties":{"id":"public_440024000277","name":"Orchard Farms El. School","school_type":"public","street":"1555 Scituate Avenue","city":"Cranston","state":"RI","zip":"02921","grades_high":5,"grade_bucket":"Elementary","lat":41.776368,"lon":-71.530183,"district_geoid":"4400240","district_name":"Cranston","source":"NCES_CCD_2024_2025","nces_id":"440024000277"}},{"type":"Feature","geometry":{"type":"Point","coordinates":[-71.470744,41.782978]},"properties":{"id":"public_440024000351","name":"George J. Peters School","school_type":"public","street":"15 Mayberry Street","city":"Cranston","state":"RI","zip":"02920","grades_high":5,"grade_bucket":"Elementary","lat":41.782978,"lon":-71.470744,"district_geoid":"4400240","district_name":"Cranston","source":"NCES_CCD_2024_2025","nces_id":"440024000351"}},{"type":"Feature","geometry":{"type":"Point","coordinates":[-71.474896,41.77184]},"properties":{"id":"public_440024000458","name":"Cranston Career & Tech Center","school_type":"public","street":"100 Metropolitan Avenue","city":"Cranston","state":"RI","zip":"02920","grades_low":10,"grades_high":12,"grade_bucket":"High","lat":41.77184,"lon":-71.474896,"district_geoid":"4400240","district_name":"Cranston","source":"NCES_CCD_2024_2025","nces_id":"440024000458"}},{"type":"Feature","geometry":{"type":"Point","coordinates":[-71.508067,41.753181]},"properties":{"id":"public_440024000504","name":"Hope Highlands Middle School","school_type":"public","street":"300 Hope Road","city":"Cranston","state":"RI","zip":"02921","grades_low":6,"grades_high":8,"grade_bucket":"Middle","lat":41.753181,"lon":-71.508067,"district_geoid":"4400240","district_name":"Cranston","source":"NCES_CCD_2024_2025","nces_id":"440024000504"}},{"type":"Feature","geometry":{"type":"Point","coordinates":[-71.43736,41.786111]},"properties":{"id":"public_440024000509","name":"Cranston Early Learning Center","school_type":"public","street":"45 Sprague Avenue","city":"Cranston","state":"RI","zip":"02910","grade_bucket":"Other","lat":41.786111,"lon":-71.43736,"district_geoid":"4400240","district_name":"Cranston","source":"NCES_CCD_2024_2025","nces_id":"440024000509"}},{"type":"Feature","geometry":{"type":"Point","coordinates":[-71.394475,41.908788]},"properties":{"id":"public_440027000039","name":"B.F. Norton Elementary School","school_type":"public","street":"364 Broad Street","city":"Cumberland","state":"RI","zip":"02864","grades_high":5,"grade_bucket":"Elementary","lat":41.908788,"lon":-71.394475,"district_geoid":"4400270","district_name":"Cumberland","source":"NCES_CCD_2024_2025","nces_id":"440027000039"}},{"type":"Feature","geometry":{"type":"Point","coordinates":[-71.427881,41.94747]},"properties":{"id":"public_440027000070","name":"Ashton School","school_type":"public","street":"2602 Mendon Road (Transitional Building)","city":"Cumberland","state":"RI","zip":"02864","grades_high":5,"grade_bucket":"Elementary","lat":41.94747,"lon":-71.427881,"district_geoid":"4400270","district_name":"Cumberland","source":"NCES_CCD_2024_2025","nces_id":"440027000070"}},{"type":"Feature","geometry":{"type":"Point","coordinates":[-71.39865,41.976725]},"properties":{"id":"public_440027000075","name":"Community School","school_type":"public","street":"15 Arnold Mills Road","city":"Cumberland","state":"RI","zip":"02864","grades_high":5,"grade_bucket":"Elementary","lat":41.976725,"lon":-71.39865,"district_geoid":"4400270","district_name":"Cumberland","source":"NCES_CCD_2024_2025","nces_id":"440027000075"}},{"type":"Feature","geometry":{"type":"Point","coordinates":[-71.447817,41.964986]},"properties":{"id":"public_440027000076","name":"Cumberland High School","school_type":"public","street":"2600 Mendon Road","city":"Cumberland","state":"RI","zip":"02864","grades_low":9,"grades_high":12,"grade_bucket":"High","lat":41.964986,"lon":-71.447817,"district_geoid":"4400270","district_name":"Cumberland","source":"NCES_CCD_2024_2025","nces_id":"440027000076"}},{"type":"Feature","geometry":{"type":"Point","coordinates":[-71.45944695019304,41.975496357407415]},"properties":{"id":"public_440027000077","name":"John J. McLaughlin Cumberland","school_type":"public","street":"205 Manville Hill Road","city":"Cumberland","state":"RI","zip":"02864","grades_high":5,"grade_bucket":"Elementary","lat":41.975496357407415,"lon":-71.45944695019304,"district_geoid":"4400270","district_name":"Cumberland","source":"NCES_CCD_2024_2025","nces_id":"440027000077"}},{"type":"Feature","geometry":{"type":"Point","coordinates":[-71.392787,41.918366]},"properties":{"id":"public_440027000078","name":"Joseph L. McCourt MS","school_type":"public","street":"45 Highland Avenue","city":"Cumberland","state":"RI","zip":"02864","grades_low":6,"grades_high":8,"grade_bucket":"Middle","lat":41.918366,"lon":-71.392787,"district_geoid":"4400270","district_name":"Cumberland","source":"NCES_CCD_2024_2025","nces_id":"440027000078"}},{"type":"Feature","geometry":{"type":"Point","coordinates":[-71.401281,41.92863]},"properties":{"id":"public_440027000081","name":"Garvin Memorial","school_type":"public","street":"1364 Diamond Hill Road","city":"Cumberland","state":"RI","zip":"02864","grades_high":5,"grade_bucket":"Elementary","lat":41.92863,"lon":-71.401281,"district_geoid":"4400270","district_name":"Cumberland","source":"NCES_CCD_2024_2025","nces_id":"440027000081"}},{"type":"Feature","geometry":{"type":"Point","coordinates":[-71.425548,41.982281]},"properties":{"id":"public_440027000082","name":"North Cumberland Middle","school_type":"public","street":"400 Nate Whipple Highway","city":"Cumberland","state":"RI","zip":"02864","grades_low":6,"grades_high":8,"grade_bucket":"Middle","lat":41.982281,"lon":-71.425548,"district_geoid":"4400270","district_name":"Cumberland","source":"NCES_CCD_2024_2025","nces_id":"440027000082"}},{"type":"Feature","geometry":{"type":"Point","coordinates":[-71.427881,41.94747]},"properties":{"id":"public_440027000188","name":"Cumberland Preschool Center","school_type":"public","street":"130 Scott Road","city":"Cumberland","state":"RI","zip":"02864","grade_bucket":"Other","lat":41.94747,"lon":-71.427881,"district_geoid":"4400270","district_name":"Cumberland","source":"NCES_CCD_2024_2025","nces_id":"440027000188"}},{"type":"Feature","geometry":{"type":"Point","coordinates":[-71.483626,41.638887]},"properties":{"id":"public_440030000086","name":"East Greenwich High","school_type":"public","street":"300 Avenger Drive","city":"East Greenwich","state":"RI","zip":"02818","grades_low":9,"grades_high":12,"grade_bucket":"High","lat":41.638887,"lon":-71.483626,"district_geoid":"4400300","district_name":"East Greenwich","source":"NCES_CCD_2024_2025","nces_id":"440030000086"}},{"type":"Feature","geometry":{"type":"Point","coordinates":[-71.462707,41.651605]},"properties":{"id":"public_440030000087","name":"Archie R. Cole MS","school_type":"public","street":"100 Cedar Avenue","city":"East Greenwich","state":"RI","zip":"02818","grades_low":6,"grades_high":8,"grade_bucket":"Middle","lat":41.651605,"lon":-71.462707,"district_geoid":"4400300","district_name":"East Greenwich","source":"NCES_CCD_2024_2025","nces_id":"440030000087"}},{"type":"Feature","geometry":{"type":"Point","coordinates":[-71.50504,41.62522]},"properties":{"id":"public_440030000088","name":"Frenchtown School","school_type":"public","street":"1100 Frenchtown Road","city":"East Greenwich","state":"RI","zip":"02818","grades_high":2,"grade_bucket":"Elementary","lat":41.62522,"lon":-71.50504,"district_geoid":"4400300","district_name":"East Greenwich","source":"NCES_CCD_2024_2025","nces_id":"440030000088"}},{"type":"Feature","geometry":{"type":"Point","coordinates":[-71.456144,41.657433]},"properties":{"id":"public_440030000089","name":"James H. Eldredge School","school_type":"public","street":"101 First Avenue","city":"East Greenwich","state":"RI","zip":"02818","grades_low":3,"grades_high":5,"grade_bucket":"Elementary","lat":41.657433,"lon":-71.456144,"district_geoid":"4400300","district_name":"East Greenwich","source":"NCES_CCD_2024_2025","nces_id":"440030000089"}},{"type":"Feature","geometry":{"type":"Point","coordinates":[-71.481379,41.636245]},"properties":{"id":"public_440030000090","name":"Meadowbrook Farms School","school_type":"public","street":"2 Chestnut Drive","city":"East Greenwich","state":"RI","zip":"02818","grades_high":2,"grade_bucket":"Elementary","lat":41.636245,"lon":-71.481379,"district_geoid":"4400300","district_name":"East Greenwich","source":"NCES_CCD_2024_2025","nces_id":"440030000090"}},{"type":"Feature","geometry":{"type":"Point","coordinates":[-71.46883,41.650232]},"properties":{"id":"public_440030000377","name":"George Hanaford School","school_type":"public","street":"200 Middle Road","city":"East Greenwich","state":"RI","zip":"02818","grades_low":3,"grades_high":5,"grade_bucket":"Elementary","lat":41.650232,"lon":-71.46883,"district_geoid":"4400300","district_name":"East Greenwich","source":"NCES_CCD_2024_2025","nces_id":"440030000377"}},{"type":"Feature","geometry":{"type":"Point","coordinates":[-71.382422,41.812453]},"properties":{"id":"public_440033000091","name":"Agnes B. Hennessey School","school_type":"public","street":"75 Fort Street","city":"East Providence","state":"RI","zip":"02914","grades_high":5,"grade_bucket":"Elementary","lat":41.812453,"lon":-71.382422,"district_geoid":"4400330","district_name":"East Providence","source":"NCES_CCD_2024_2025","nces_id":"440033000091"}},{"type":"Feature","geometry":{"type":"Point","coordinates":[-71.342065,41.764337]},"properties":{"id":"public_440033000092","name":"Waddington School","school_type":"public","street":"101 Legion Way","city":"Riverside","state":"RI","zip":"02915","grades_high":5,"grade_bucket":"Elementary","lat":41.764337,"lon":-71.342065,"district_geoid":"4400330","district_name":"East Providence","source":"NCES_CCD_2024_2025","nces_id":"440033000092"}},{"type":"Feature","geometry":{"type":"Point","coordinates":[-71.354756,41.819502]},"properties":{"id":"public_440033000097","name":"East Providence High","school_type":"public","street":"2000 Pawtucket Avenue","city":"East Providence","state":"RI","zip":"02914","grades_low":9,"grades_high":12,"grade_bucket":"High","lat":41.819502,"lon":-71.354756,"district_geoid":"4400330","district_name":"East Providence","source":"NCES_CCD_2024_2025","nces_id":"440033000097"}},{"type":"Feature","geometry":{"type":"Point","coordinates":[-71.361773,41.80159]},"properties":{"id":"public_440033000099","name":"Kent Heights School","school_type":"public","street":"2680 Pawtucket Avenue","city":"East Providence","state":"RI","zip":"02914","grades_high":5,"grade_bucket":"Elementary","lat":41.80159,"lon":-71.361773,"district_geoid":"4400330","district_name":"East Providence","source":"NCES_CCD_2024_2025","nces_id":"440033000099"}},{"type":"Feature","geometry":{"type":"Point","coordinates":[-71.364411,41.825095]},"properties":{"id":"public_440033000103","name":"Orlo Avenue School","school_type":"public","street":"25 Orlo Avenue","city":"East Providence","state":"RI","zip":"02914","grades_high":5,"grade_bucket":"Elementary","lat":41.825095,"lon":-71.364411,"district_geoid":"4400330","district_name":"East Providence","source":"NCES_CCD_2024_2025","nces_id":"440033000103"}},{"type":"Feature","geometry":{"type":"Point","coordinates":[-71.349879,41.777001]},"properties":{"id":"public_440033000105","name":"Riverside Middle School","school_type":"public","street":"179 Forbes Street","city":"Riverside","state":"RI","zip":"02915","grades_low":6,"grades_high":8,"grade_bucket":"Middle","lat":41.777001,"lon":-71.349879,"district_geoid":"4400330","district_name":"East Providence","source":"NCES_CCD_2024_2025","nces_id":"440033000105"}},{"type":"Feature","geometry":{"type":"Point","coordinates":[-71.369332,41.797963]},"properties":{"id":"public_440033000106","name":"Silver Spring School","school_type":"public","street":"120 Silver Spring Avenue","city":"East Providence","state":"RI","zip":"02914","grades_high":5,"grade_bucket":"Elementary","lat":41.797963,"lon":-71.369332,"district_geoid":"4400330","district_name":"East Providence","source":"NCES_CCD_2024_2025","nces_id":"440033000106"}},{"type":"Feature","geometry":{"type":"Point","coordinates":[-71.364839,41.815868]},"properties":{"id":"public_440033000109","name":"Emma G. Whiteknact School","school_type":"public","street":"261 Grosvenor Avenue","city":"East Providence","state":"RI","zip":"02914","grades_high":5,"grade_bucket":"Elementary","lat":41.815868,"lon":-71.364839,"district_geoid":"4400330","district_name":"East Providence","source":"NCES_CCD_2024_2025","nces_id":"440033000109"}},{"type":"Feature","geometry":{"type":"Point","coordinates":[-71.365756,41.807066]},"properties":{"id":"public_440033000348","name":"Edward Martin Middle","school_type":"public","street":"111 Brown Street","city":"East Providence","state":"RI","zip":"02914","grades_low":6,"grades_high":8,"grade_bucket":"Middle","lat":41.807066,"lon":-71.365756,"district_geoid":"4400330","district_name":"East Providence","source":"NCES_CCD_2024_2025","nces_id":"440033000348"}},{"type":"Feature","geometry":{"type":"Point","coordinates":[-71.360764,41.841722]},"properties":{"id":"public_440033000389","name":"Myron J. Francis Elementary","school_type":"public","street":"64 Bourne Avenue","city":"Rumford","state":"RI","zip":"02916","grades_high":5,"grade_bucket":"Elementary","lat":41.841722,"lon":-71.360764,"district_geoid":"4400330","district_name":"East Providence","source":"NCES_CCD_2024_2025","nces_id":"440033000389"}},{"type":"Feature","geometry":{"type":"Point","coordinates":[-71.354343,41.821059]},"properties":{"id":"public_440033000459","name":"East Providence Career Tech","school_type":"public","street":"2000 Pawtucket Avenue","city":"East Providence","state":"RI","zip":"02914","grades_low":8,"grades_high":12,"grade_bucket":"High","lat":41.821059,"lon":-71.354343,"district_geoid":"4400330","district_name":"East Providence","source":"NCES_CCD_2024_2025","nces_id":"440033000459"}},{"type":"Feature","geometry":{"type":"Point","coordinates":[-71.366641,41.807875]},"properties":{"id":"public_440033000506","name":"Edward R. Martin Middle Annex","school_type":"public","street":"111 Brown Street","city":"East Providence","state":"RI","zip":"02914","grade_bucket":"Other","lat":41.807875,"lon":-71.366641,"district_geoid":"4400330","district_name":"East Providence","source":"NCES_CCD_2024_2025","nces_id":"440033000506"}},{"type":"Feature","geometry":{"type":"Point","coordinates":[-71.343923,41.773085]},"properties":{"id":"public_440033000532","name":"James R. D. Oldham School","school_type":"public","street":"60 Bart Drive","city":"Riverside","state":"RI","zip":"02915","grade_bucket":"Other","lat":41.773085,"lon":-71.343923,"district_geoid":"4400330","district_name":"East Providence","source":"NCES_CCD_2024_2025","nces_id":"440033000532"}},{"type":"Feature","geometry":{"type":"Point","coordinates":[-71.618105,41.584927]},"properties":{"id":"public_440036000038","name":"Wawaloam School","school_type":"public","street":"100 Victory Highway","city":"Exeter","state":"RI","zip":"02822","grades_high":1,"grade_bucket":"Elementary","lat":41.584927,"lon":-71.618105,"district_geoid":"4400360","district_name":"Exeter-West Greenwich","source":"NCES_CCD_2024_2025","nces_id":"440036000038"}},{"type":"Feature","geometry":{"type":"Point","coordinates":[-71.643075,41.599801]},"properties":{"id":"public_440036000111","name":"Metcalf School","school_type":"public","street":"30 Nooseneck Hill Road","city":"Exeter","state":"RI","zip":"02822","grades_low":2,"grades_high":6,"grade_bucket":"Elementary","lat":41.599801,"lon":-71.643075,"district_geoid":"4400360","district_name":"Exeter-West Greenwich","source":"NCES_CCD_2024_2025","nces_id":"440036000111"}},{"type":"Feature","geometry":{"type":"Point","coordinates":[-71.637673,41.612695]},"properties":{"id":"public_440036000112","name":"Mildred E. Lineham School","school_type":"public","street":"859 Nooseneck Hill Road","city":"West Greenwich","state":"RI","zip":"02817","grade_bucket":"Other","lat":41.612695,"lon":-71.637673,"district_geoid":"4400360","district_name":"Exeter-West Greenwich","source":"NCES_CCD_2024_2025","nces_id":"440036000112"}},{"type":"Feature","geometry":{"type":"Point","coordinates":[-71.638398,41.607586]},"properties":{"id":"public_440036000390","name":"Exeter-West Greenwich Reg. Jr.","school_type":"public","street":"930 Nooseneck Hill Road","city":"West Greenwich","state":"RI","zip":"02817","grades_low":7,"grades_high":8,"grade_bucket":"Middle","lat":41.607586,"lon":-71.638398,"district_geoid":"4400360","district_name":"Exeter-West Greenwich","source":"NCES_CCD_2024_2025","nces_id":"440036000390"}},{"type":"Feature","geometry":{"type":"Point","coordinates":[-71.638398,41.607586]},"properties":{"id":"public_440036000391","name":"Exeter-West Greenwich Regional","school_type":"public","street":"930 Nooseneck Hill Road","city":"West Greenwich","state":"RI","zip":"02817","grades_low":9,"grades_high":12,"grade_bucket":"High","lat":41.607586,"lon":-71.638398,"district_geoid":"4400360","district_name":"Exeter-West Greenwich","source":"NCES_CCD_2024_2025","nces_id":"440036000391"}},{"type":"Feature","geometry":{"type":"Point","coordinates":[-71.732763,41.813955]},"properties":{"id":"public_440039000114","name":"Capt. Isaac Paine El. School","school_type":"public","street":"160 Foster Center Road","city":"Foster","state":"RI","zip":"02825","grades_high":5,"grade_bucket":"Elementary","lat":41.813955,"lon":-71.732763,"district_geoid":"4400390","district_name":"Foster","source":"NCES_CCD_2024_2025","nces_id":"440039000114"}},{"type":"Feature","geometry":{"type":"Point","coordinates":[-71.715072,41.865477]},"properties":{"id":"public_440042000116","name":"Ponaganset High School","school_type":"public","street":"137 Anan Wade Road","city":"North Scituate","state":"RI","zip":"02857","grades_low":9,"grades_high":12,"grade_bucket":"High","lat":41.865477,"lon":-71.715072,"district_geoid":"4400420","district_name":"Foster-Glocester","source":"NCES_CCD_2024_2025","nces_id":"440042000116"}},{"type":"Feature","geometry":{"type":"Point","coordinates":[-71.676724,41.867933]},"properties":{"id":"public_440042000117","name":"Ponaganset Middle School","school_type":"public","street":"7 Rustic Hill Road","city":"North Scituate","state":"RI","zip":"02857","grades_low":6,"grades_high":8,"grade_bucket":"Middle","lat":41.867933,"lon":-71.676724,"district_geoid":"4400420","district_name":"Foster-Glocester","source":"NCES_CCD_2024_2025","nces_id":"440042000117"}},{"type":"Feature","geometry":{"type":"Point","coordinates":[-71.634328,41.877108]},"properties":{"id":"public_440045000119","name":"Fogarty Memorial","school_type":"public","street":"736 Snake Hill Road","city":"North Scituate","state":"RI","zip":"02857","grades_high":5,"grade_bucket":"Elementary","lat":41.877108,"lon":-71.634328,"district_geoid":"4400450","district_name":"Glocester","source":"NCES_CCD_2024_2025","nces_id":"440045000119"}},{"type":"Feature","geometry":{"type":"Point","coordinates":[-71.778224,41.912146]},"properties":{"id":"public_440045000403","name":"West Glocester Elementary","school_type":"public","street":"111 Reynolds Road/Rte 94","city":"Chepachet","state":"RI","zip":"02814","grades_high":5,"grade_bucket":"Elementary","lat":41.912146,"lon":-71.778224,"district_geoid":"4400450","district_name":"Glocester","source":"NCES_CCD_2024_2025","nces_id":"440045000403"}},{"type":"Feature","geometry":{"type":"Point","coordinates":[-71.378437,41.498671]},"properties":{"id":"public_440051000123","name":"Jamestown School-Lawn","school_type":"public","street":"55 Lawn Avenue","city":"Jamestown","state":"RI","zip":"02835","grades_low":5,"grades_high":8,"grade_bucket":"Elementary","lat":41.498671,"lon":-71.378437,"district_geoid":"4400510","district_name":"Jamestown","source":"NCES_CCD_2024_2025","nces_id":"440051000123"}},{"type":"Feature","geometry":{"type":"Point","coordinates":[-71.380315,41.500692]},"properties":{"id":"public_440051000404","name":"Jamestown School-Melrose","school_type":"public","street":"76 Melrose Avenue","city":"Jamestown","state":"RI","zip":"02835","grades_high":4,"grade_bucket":"Elementary","lat":41.500692,"lon":-71.380315,"district_geoid":"4400510","district_name":"Jamestown","source":"NCES_CCD_2024_2025","nces_id":"440051000404"}},{"type":"Feature","geometry":{"type":"Point","coordinates":[-71.548031,41.834391]},"properties":{"id":"public_440054000125","name":"Brown Avenue School","school_type":"public","street":"14 Brown Avenue","city":"Johnston","state":"RI","zip":"02919","grades_low":1,"grades_high":5,"grade_bucket":"Elementary","lat":41.834391,"lon":-71.548031,"district_geoid":"4400540","district_name":"Johnston","source":"NCES_CCD_2024_2025","nces_id":"440054000125"}},{"type":"Feature","geometry":{"type":"Point","coordinates":[-71.493246,41.863562]},"properties":{"id":"public_440054000127","name":"Graniteville School","school_type":"public","street":"6 Collins Avenue","city":"Johnston","state":"RI","zip":"02919","grade_bucket":"Other","lat":41.863562,"lon":-71.493246,"district_geoid":"4400540","district_name":"Johnston","source":"NCES_CCD_2024_2025","nces_id":"440054000127"}},{"type":"Feature","geometry":{"type":"Point","coordinates":[-71.501621,41.831949]},"properties":{"id":"public_440054000128","name":"Johnston Senior High","school_type":"public","street":"345 Cherry Hill Road","city":"Johnston","state":"RI","zip":"02919","grades_low":9,"grades_high":12,"grade_bucket":"High","lat":41.831949,"lon":-71.501621,"district_geoid":"4400540","district_name":"Johnston","source":"NCES_CCD_2024_2025","nces_id":"440054000128"}},{"type":"Feature","geometry":{"type":"Point","coordinates":[-71.501696,41.829989]},"properties":{"id":"public_440054000129","name":"Nicholas A. Ferri Middle","school_type":"public","street":"10 Memorial Avenue","city":"Johnston","state":"RI","zip":"02919","grades_low":6,"grades_high":8,"grade_bucket":"Middle","lat":41.829989,"lon":-71.501696,"district_geoid":"4400540","district_name":"Johnston","source":"NCES_CCD_2024_2025","nces_id":"440054000129"}},{"type":"Feature","geometry":{"type":"Point","coordinates":[-71.486547,41.837613]},"properties":{"id":"public_440054000130","name":"Sarah Dyer Barnes School","school_type":"public","street":"24 Barnes Avenue","city":"Johnston","state":"RI","zip":"02919","grades_high":5,"grade_bucket":"Elementary","lat":41.837613,"lon":-71.486547,"district_geoid":"4400540","district_name":"Johnston","source":"NCES_CCD_2024_2025","nces_id":"440054000130"}},{"type":"Feature","geometry":{"type":"Point","coordinates":[-71.479217,41.798088]},"properties":{"id":"public_440054000131","name":"Thornton School","school_type":"public","street":"4 School Street","city":"Johnston","state":"RI","zip":"02919","grades_low":1,"grades_high":5,"grade_bucket":"Elementary","lat":41.798088,"lon":-71.479217,"district_geoid":"4400540","district_name":"Johnston","source":"NCES_CCD_2024_2025","nces_id":"440054000131"}},{"type":"Feature","geometry":{"type":"Point","coordinates":[-71.476102,41.817008]},"properties":{"id":"public_440054000132","name":"Winsor Hill School","school_type":"public","street":"100 Theresa Street","city":"Johnston","state":"RI","zip":"02919","grades_low":1,"grades_high":5,"grade_bucket":"Elementary","lat":41.817008,"lon":-71.476102,"district_geoid":"4400540","district_name":"Johnston","source":"NCES_CCD_2024_2025","nces_id":"440054000132"}},{"type":"Feature","geometry":{"type":"Point","coordinates":[-71.501696,41.829989]},"properties":{"id":"public_440054000452","name":"Early Childhood Center","school_type":"public","street":"10 Memorial Avenue","city":"Johnston","state":"RI","zip":"02919","grade_bucket":"Other","lat":41.829989,"lon":-71.501696,"district_geoid":"4400540","district_name":"Johnston","source":"NCES_CCD_2024_2025","nces_id":"440054000452"}},{"type":"Feature","geometry":{"type":"Point","coordinates":[-71.473548,41.910341]},"properties":{"id":"public_440057000062","name":"Lincoln Middle School","school_type":"public","street":"152 Jenckes Hill Road","city":"Lincoln","state":"RI","zip":"02865","grades_low":6,"grades_high":8,"grade_bucket":"Middle","lat":41.910341,"lon":-71.473548,"district_geoid":"4400570","district_name":"Lincoln","source":"NCES_CCD_2024_2025","nces_id":"440057000062"}},{"type":"Feature","geometry":{"type":"Point","coordinates":[-71.445772,41.928745]},"properties":{"id":"public_440057000134","name":"Lincoln Central Elem.","school_type":"public","street":"1081 Great Road","city":"Lincoln","state":"RI","zip":"02865","grades_high":5,"grade_bucket":"Elementary","lat":41.928745,"lon":-71.445772,"district_geoid":"4400570","district_name":"Lincoln","source":"NCES_CCD_2024_2025","nces_id":"440057000134"}},{"type":"Feature","geometry":{"type":"Point","coordinates":[-71.450534,41.936721]},"properties":{"id":"public_440057000135","name":"Lincoln Senior High School","school_type":"public","street":"135 Old River Road","city":"Lincoln","state":"RI","zip":"02865","grades_low":9,"grades_high":12,"grade_bucket":"High","lat":41.936721,"lon":-71.450534,"district_geoid":"4400570","district_name":"Lincoln","source":"NCES_CCD_2024_2025","nces_id":"440057000135"}},{"type":"Feature","geometry":{"type":"Point","coordinates":[-71.416301,41.908528]},"properties":{"id":"public_440057000137","name":"Lonsdale Elementary","school_type":"public","street":"270 River Road","city":"Lincoln","state":"RI","zip":"02865","grades_high":5,"grade_bucket":"Elementary","lat":41.908528,"lon":-71.416301,"district_geoid":"4400570","district_name":"Lincoln","source":"NCES_CCD_2024_2025","nces_id":"440057000137"}},{"type":"Feature","geometry":{"type":"Point","coordinates":[-71.467942,41.963091]},"properties":{"id":"public_440057000138","name":"Northern Lincoln Elem.","school_type":"public","street":"315 New River Road","city":"Manville","state":"RI","zip":"02838","grades_high":5,"grade_bucket":"Elementary","lat":41.963091,"lon":-71.467942,"district_geoid":"4400570","district_name":"Lincoln","source":"NCES_CCD_2024_2025","nces_id":"440057000138"}},{"type":"Feature","geometry":{"type":"Point","coordinates":[-71.414021,41.892938]},"properties":{"id":"public_440057000139","name":"Saylesville Elementary","school_type":"public","street":"50 Woodland Street","city":"Lincoln","state":"RI","zip":"02865","grades_high":5,"grade_bucket":"Elementary","lat":41.892938,"lon":-71.414021,"district_geoid":"4400570","district_name":"Lincoln","source":"NCES_CCD_2024_2025","nces_id":"440057000139"}},{"type":"Feature","geometry":{"type":"Point","coordinates":[-71.17369,41.509536]},"properties":{"id":"public_440060000140","name":"Wilbur and McMahon Schools","school_type":"public","street":"28 Commons","city":"Little Compton","state":"RI","zip":"02837","grades_high":8,"grade_bucket":"Elementary","lat":41.509536,"lon":-71.17369,"district_geoid":"4400600","district_name":"Little Compton","source":"NCES_CCD_2024_2025","nces_id":"440060000140"}},{"type":"Feature","geometry":{"type":"Point","coordinates":[-71.281263,41.496666]},"properties":{"id":"public_440063000141","name":"Aquidneck School","school_type":"public","street":"70 Reservoir Avenue","city":"Middletown","state":"RI","zip":"02842","grades_high":3,"grade_bucket":"Elementary","lat":41.496666,"lon":-71.281263,"district_geoid":"4400630","district_name":"Middletown","source":"NCES_CCD_2024_2025","nces_id":"440063000141"}},{"type":"Feature","geometry":{"type":"Point","coordinates":[-71.279917,41.519206]},"properties":{"id":"public_440063000144","name":"Gaudet Middle School","school_type":"public","street":"1113 Aquidneck Avenue","city":"Middletown","state":"RI","zip":"02842","grades_low":6,"grades_high":8,"grade_bucket":"Middle","lat":41.519206,"lon":-71.279917,"district_geoid":"4400630","district_name":"Middletown","source":"NCES_CCD_2024_2025","nces_id":"440063000144"}},{"type":"Feature","geometry":{"type":"Point","coordinates":[-71.287047,41.517954]},"properties":{"id":"public_440063000147","name":"Middletown High School","school_type":"public","street":"130 Valley Road","city":"Middletown","state":"RI","zip":"02842","grades_low":9,"grades_high":12,"grade_bucket":"High","lat":41.517954,"lon":-71.287047,"district_geoid":"4400630","district_name":"Middletown","source":"NCES_CCD_2024_2025","nces_id":"440063000147"}},{"type":"Feature","geometry":{"type":"Point","coordinates":[-71.287124,41.525732]},"properties":{"id":"public_440063000405","name":"Forest Avenue School","school_type":"public","street":"315 Forest Avenue","city":"Middletown","state":"RI","zip":"02842","grades_high":3,"grade_bucket":"Elementary","lat":41.525732,"lon":-71.287124,"district_geoid":"4400630","district_name":"Middletown","source":"NCES_CCD_2024_2025","nces_id":"440063000405"}},{"type":"Feature","geometry":{"type":"Point","coordinates":[-71.279917,41.519206]},"properties":{"id":"public_440063000471","name":"Gaudet Learning Academy","school_type":"public","street":"1113 Aquidneck Ave.","city":"Middletown","state":"RI","zip":"02842","grades_low":4,"grades_high":5,"grade_bucket":"Elementary","lat":41.519206,"lon":-71.279917,"district_geoid":"4400630","district_name":"Middletown","source":"NCES_CCD_2024_2025","nces_id":"440063000471"}},{"type":"Feature","geometry":{"type":"Point","coordinates":[-71.471969,41.437683]},"properties":{"id":"public_440066000150","name":"Narragansett Elementary","school_type":"public","street":"55 Mumford Road","city":"Narragansett","state":"RI","zip":"02882","grades_high":4,"grade_bucket":"Elementary","lat":41.437683,"lon":-71.471969,"district_geoid":"4400660","district_name":"Narragansett","source":"NCES_CCD_2024_2025","nces_id":"440066000150"}},{"type":"Feature","geometry":{"type":"Point","coordinates":[-71.469925,41.43032]},"properties":{"id":"public_440066000151","name":"Narragansett High School","school_type":"public","street":"245 South Pier Road","city":"Narragansett","state":"RI","zip":"02882","grades_low":9,"grades_high":12,"grade_bucket":"High","lat":41.43032,"lon":-71.469925,"district_geoid":"4400660","district_name":"Narragansett","source":"NCES_CCD_2024_2025","nces_id":"440066000151"}},{"type":"Feature","geometry":{"type":"Point","coordinates":[-71.469878,41.428764]},"properties":{"id":"public_440066000396","name":"Narragansett Pier School","school_type":"public","street":"235 South Pier Road","city":"Narragansett","state":"RI","zip":"02882","grades_low":5,"grades_high":8,"grade_bucket":"Elementary","lat":41.428764,"lon":-71.469878,"district_geoid":"4400660","district_name":"Narragansett","source":"NCES_CCD_2024_2025","nces_id":"440066000396"}},{"type":"Feature","geometry":{"type":"Point","coordinates":[-71.560898,41.164408]},"properties":{"id":"public_440069000149","name":"Block Island School","school_type":"public","street":"Block Island School, High Street","city":"Block Island","state":"RI","zip":"02807","grades_high":12,"grade_bucket":"High","lat":41.164408,"lon":-71.560898,"district_geoid":"4400690","district_name":"New Shoreham","source":"NCES_CCD_2024_2025","nces_id":"440069000149"}},{"type":"Feature","geometry":{"type":"Point","coordinates":[-71.311135,41.491869]},"properties":{"id":"public_440072000155","name":"Frank E. Thompson Middle","school_type":"public","street":"55 Broadway","city":"Newport","state":"RI","zip":"02840","grades_low":5,"grades_high":8,"grade_bucket":"Elementary","lat":41.491869,"lon":-71.311135,"district_geoid":"4400720","district_name":"Newport","source":"NCES_CCD_2024_2025","nces_id":"440072000155"}},{"type":"Feature","geometry":{"type":"Point","coordinates":[-71.321108,41.46846]},"properties":{"id":"public_440072000159","name":"Rogers High School","school_type":"public","street":"15 Wickham Road","city":"Newport","state":"RI","zip":"02840","grades_low":9,"grades_high":12,"grade_bucket":"High","lat":41.46846,"lon":-71.321108,"district_geoid":"4400720","district_name":"Newport","source":"NCES_CCD_2024_2025","nces_id":"440072000159"}},{"type":"Feature","geometry":{"type":"Point","coordinates":[-71.321108,41.46846]},"properties":{"id":"public_440072000460","name":"Newport Area Career Tech Ctr","school_type":"public","street":"15 Wickham Rd","city":"Newport","state":"RI","zip":"02840","grades_low":9,"grades_high":12,"grade_bucket":"High","lat":41.46846,"lon":-71.321108,"district_geoid":"4400720","district_name":"Newport","source":"NCES_CCD_2024_2025","nces_id":"440072000460"}},{"type":"Feature","geometry":{"type":"Point","coordinates":[-71.304961,41.508352]},"properties":{"id":"public_440072000485","name":"Claiborne Pell Elementary","school_type":"public","street":"35 Dexter Street","city":"Newport","state":"RI","zip":"02840","grades_high":4,"grade_bucket":"Elementary","lat":41.508352,"lon":-71.304961,"district_geoid":"4400720","district_name":"Newport","source":"NCES_CCD_2024_2025","nces_id":"440072000485"}},{"type":"Feature","geometry":{"type":"Point","coordinates":[-71.464806,41.619459]},"properties":{"id":"public_440075000165","name":"Davisville Middle School","school_type":"public","street":"200 School Street","city":"North Kingstown","state":"RI","zip":"02852","grades_low":6,"grades_high":8,"grade_bucket":"Middle","lat":41.619459,"lon":-71.464806,"district_geoid":"4400750","district_name":"North Kingstown","source":"NCES_CCD_2024_2025","nces_id":"440075000165"}},{"type":"Feature","geometry":{"type":"Point","coordinates":[-71.452637,41.621429]},"properties":{"id":"public_440075000166","name":"Forest Park El. School","school_type":"public","street":"50 Woodlawn Drive","city":"North Kingstown","state":"RI","zip":"02852","grades_high":5,"grade_bucket":"Elementary","lat":41.621429,"lon":-71.452637,"district_geoid":"4400750","district_name":"North Kingstown","source":"NCES_CCD_2024_2025","nces_id":"440075000166"}},{"type":"Feature","geometry":{"type":"Point","coordinates":[-71.440462,41.547653]},"properties":{"id":"public_440075000167","name":"Hamilton School","school_type":"public","street":"25 Salisbury Avenue","city":"North Kingstown","state":"RI","zip":"02852","grades_high":5,"grade_bucket":"Elementary","lat":41.547653,"lon":-71.440462,"district_geoid":"4400750","district_name":"North Kingstown","source":"NCES_CCD_2024_2025","nces_id":"440075000167"}},{"type":"Feature","geometry":{"type":"Point","coordinates":[-71.44854,41.555858]},"properties":{"id":"public_440075000168","name":"North Kingstown Sr. High","school_type":"public","street":"150 Fairway Drive","city":"North Kingstown","state":"RI","zip":"02852","grades_low":9,"grades_high":12,"grade_bucket":"High","lat":41.555858,"lon":-71.44854,"district_geoid":"4400750","district_name":"North Kingstown","source":"NCES_CCD_2024_2025","nces_id":"440075000168"}},{"type":"Feature","geometry":{"type":"Point","coordinates":[-71.438622,41.615075]},"properties":{"id":"public_440075000169","name":"Suzanne M. Henseler Quidnesset","school_type":"public","street":"166 Mark Drive","city":"North Kingstown","state":"RI","zip":"02852","grades_high":5,"grade_bucket":"Elementary","lat":41.615075,"lon":-71.438622,"district_geoid":"4400750","district_name":"North Kingstown","source":"NCES_CCD_2024_2025","nces_id":"440075000169"}},{"type":"Feature","geometry":{"type":"Point","coordinates":[-71.486101,41.593894]},"properties":{"id":"public_440075000170","name":"Stony Lane El. School","school_type":"public","street":"825 Stony Lane","city":"North Kingstown","state":"RI","zip":"02852","grades_high":5,"grade_bucket":"Elementary","lat":41.593894,"lon":-71.486101,"district_geoid":"4400750","district_name":"North Kingstown","source":"NCES_CCD_2024_2025","nces_id":"440075000170"}},{"type":"Feature","geometry":{"type":"Point","coordinates":[-71.460416,41.567748]},"properties":{"id":"public_440075000172","name":"Wickford Middle School","school_type":"public","street":"250 Tower Hill Road","city":"North Kingstown","state":"RI","zip":"02852","grades_low":6,"grades_high":8,"grade_bucket":"Middle","lat":41.567748,"lon":-71.460416,"district_geoid":"4400750","district_name":"North Kingstown","source":"NCES_CCD_2024_2025","nces_id":"440075000172"}},{"type":"Feature","geometry":{"type":"Point","coordinates":[-71.444811,41.588046]},"properties":{"id":"public_440075000398","name":"Fishing Cove El. School","school_type":"public","street":"110 Wickford Point Road","city":"North Kingstown","state":"RI","zip":"02852","grades_high":5,"grade_bucket":"Elementary","lat":41.588046,"lon":-71.444811,"district_geoid":"4400750","district_name":"North Kingstown","source":"NCES_CCD_2024_2025","nces_id":"440075000398"}},{"type":"Feature","geometry":{"type":"Point","coordinates":[-71.451115,41.868306]},"properties":{"id":"public_440078000173","name":"Birchwood Middle School","school_type":"public","street":"10 Birchwood Drive","city":"North Providence","state":"RI","zip":"02904","grades_low":6,"grades_high":8,"grade_bucket":"Middle","lat":41.868306,"lon":-71.451115,"district_geoid":"4400780","district_name":"North Providence","source":"NCES_CCD_2024_2025","nces_id":"440078000173"}},{"type":"Feature","geometry":{"type":"Point","coordinates":[-71.47716,41.857273]},"properties":{"id":"public_440078000174","name":"Centredale School","school_type":"public","street":"41 Angell Avenue","city":"North Providence","state":"RI","zip":"02911","grades_high":5,"grade_bucket":"Elementary","lat":41.857273,"lon":-71.47716,"district_geoid":"4400780","district_name":"North Providence","source":"NCES_CCD_2024_2025","nces_id":"440078000174"}},{"type":"Feature","geometry":{"type":"Point","coordinates":[-71.483101,41.861687]},"properties":{"id":"public_440078000176","name":"Greystone School","school_type":"public","street":"100 Morgan Avenue","city":"North Providence","state":"RI","zip":"02911","grades_high":5,"grade_bucket":"Elementary","lat":41.861687,"lon":-71.483101,"district_geoid":"4400780","district_name":"North Providence","source":"NCES_CCD_2024_2025","nces_id":"440078000176"}},{"type":"Feature","geometry":{"type":"Point","coordinates":[-71.467082,41.854598]},"properties":{"id":"public_440078000177","name":"James L. McGuire School","school_type":"public","street":"55 Central Avenue, North Providence  RI  02911","city":"North Providence","state":"RI","zip":"02911","grades_high":5,"grade_bucket":"Elementary","lat":41.854598,"lon":-71.467082,"district_geoid":"4400780","district_name":"North Providence","source":"NCES_CCD_2024_2025","nces_id":"440078000177"}},{"type":"Feature","geometry":{"type":"Point","coordinates":[-71.470692,41.847419]},"properties":{"id":"public_440078000178","name":"Dr. Edward Ricci School","school_type":"public","street":"51 Intervale Avenue","city":"North Providence","state":"RI","zip":"02911","grades_low":6,"grades_high":8,"grade_bucket":"Middle","lat":41.847419,"lon":-71.470692,"district_geoid":"4400780","district_name":"North Providence","source":"NCES_CCD_2024_2025","nces_id":"440078000178"}},{"type":"Feature","geometry":{"type":"Point","coordinates":[-71.459465,41.86058]},"properties":{"id":"public_440078000180","name":"North Providence High","school_type":"public","street":"1828 Mineral Spring Avenue","city":"North Providence","state":"RI","zip":"02904","grades_low":9,"grades_high":12,"grade_bucket":"High","lat":41.86058,"lon":-71.459465,"district_geoid":"4400780","district_name":"North Providence","source":"NCES_CCD_2024_2025","nces_id":"440078000180"}},{"type":"Feature","geometry":{"type":"Point","coordinates":[-71.452279,41.862396]},"properties":{"id":"public_440078000181","name":"Stephen Olney School","school_type":"public","street":"1378 Douglas Avenue, North Providence  RI 02904","city":"North Providence","state":"RI","zip":"02904","grades_high":5,"grade_bucket":"Elementary","lat":41.862396,"lon":-71.452279,"district_geoid":"4400780","district_name":"North Providence","source":"NCES_CCD_2024_2025","nces_id":"440078000181"}},{"type":"Feature","geometry":{"type":"Point","coordinates":[-71.441931,41.865481]},"properties":{"id":"public_440078000182","name":"Joseph A. Whelan School","school_type":"public","street":"1440 Mineral Spring Avenue","city":"North Providence","state":"RI","zip":"02904","grades_high":5,"grade_bucket":"Elementary","lat":41.865481,"lon":-71.441931,"district_geoid":"4400780","district_name":"North Providence","source":"NCES_CCD_2024_2025","nces_id":"440078000182"}},{"type":"Feature","geometry":{"type":"Point","coordinates":[-71.544601,41.953963]},"properties":{"id":"public_440081000186","name":"North Smitfield HS","school_type":"public","street":"412 Greenville Road","city":"North Smithfield","state":"RI","zip":"02896","grades_low":9,"grades_high":12,"grade_bucket":"High","lat":41.953963,"lon":-71.544601,"district_geoid":"4400810","district_name":"North Smithfield","source":"NCES_CCD_2024_2025","nces_id":"440081000186"}},{"type":"Feature","geometry":{"type":"Point","coordinates":[-71.538847,41.940002]},"properties":{"id":"public_440081000399","name":"North Smithfield Elementary","school_type":"public","street":"2214 Providence Pike","city":"North Smithfield","state":"RI","zip":"02896","grades_high":4,"grade_bucket":"Elementary","lat":41.940002,"lon":-71.538847,"district_geoid":"4400810","district_name":"North Smithfield","source":"NCES_CCD_2024_2025","nces_id":"440081000399"}},{"type":"Feature","geometry":{"type":"Point","coordinates":[-71.546491,41.95341]},"properties":{"id":"public_440081000469","name":"North Smithfield MS","school_type":"public","street":"1850 Providence Pike","city":"North Smithfield","state":"RI","zip":"02896","grades_low":5,"grades_high":8,"grade_bucket":"Elementary","lat":41.95341,"lon":-71.546491,"district_geoid":"4400810","district_name":"North Smithfield","source":"NCES_CCD_2024_2025","nces_id":"440081000469"}},{"type":"Feature","geometry":{"type":"Point","coordinates":[-71.371855,41.876378]},"properties":{"id":"public_440084000187","name":"Agnes E. Little School","school_type":"public","street":"60 South Bend Street","city":"Pawtucket","state":"RI","zip":"02860","grades_high":5,"grade_bucket":"Elementary","lat":41.876378,"lon":-71.371855,"district_geoid":"4400840","district_name":"Pawtucket","source":"NCES_CCD_2024_2025","nces_id":"440084000187"}},{"type":"Feature","geometry":{"type":"Point","coordinates":[-71.364773,41.888321]},"properties":{"id":"public_440084000189","name":"Curvin-McCabe School","school_type":"public","street":"466 Cottage Street","city":"Pawtucket","state":"RI","zip":"02861","grades_high":5,"grade_bucket":"Elementary","lat":41.888321,"lon":-71.364773,"district_geoid":"4400840","district_name":"Pawtucket","source":"NCES_CCD_2024_2025","nces_id":"440084000189"}},{"type":"Feature","geometry":{"type":"Point","coordinates":[-71.400537,41.875049]},"properties":{"id":"public_440084000190","name":"Cunningham School","school_type":"public","street":"40 Baldwin Street","city":"Pawtucket","state":"RI","zip":"02860","grades_high":5,"grade_bucket":"Elementary","lat":41.875049,"lon":-71.400537,"district_geoid":"4400840","district_name":"Pawtucket","source":"NCES_CCD_2024_2025","nces_id":"440084000190"}},{"type":"Feature","geometry":{"type":"Point","coordinates":[-71.354975,41.887377]},"properties":{"id":"public_440084000191","name":"Elizabeth Baldwin School","school_type":"public","street":"723 Central Avenue","city":"Pawtucket","state":"RI","zip":"02861","grades_high":5,"grade_bucket":"Elementary","lat":41.887377,"lon":-71.354975,"district_geoid":"4400840","district_name":"Pawtucket","source":"NCES_CCD_2024_2025","nces_id":"440084000191"}},{"type":"Feature","geometry":{"type":"Point","coordinates":[-71.359828,41.868389]},"properties":{"id":"public_440084000192","name":"Fallon Memorial School","school_type":"public","street":"62 Lincoln Avenue","city":"Pawtucket","state":"RI","zip":"02861","grades_high":5,"grade_bucket":"Elementary","lat":41.868389,"lon":-71.359828,"district_geoid":"4400840","district_name":"Pawtucket","source":"NCES_CCD_2024_2025","nces_id":"440084000192"}},{"type":"Feature","geometry":{"type":"Point","coordinates":[-71.347864,41.892431]},"properties":{"id":"public_440084000193","name":"Flora S. Curtis School","school_type":"public","street":"582 Benefit Street","city":"Pawtucket","state":"RI","zip":"02861","grades_high":5,"grade_bucket":"Elementary","lat":41.892431,"lon":-71.347864,"district_geoid":"4400840","district_name":"Pawtucket","source":"NCES_CCD_2024_2025","nces_id":"440084000193"}},{"type":"Feature","geometry":{"type":"Point","coordinates":[-71.38331,41.866019]},"properties":{"id":"public_440084000194","name":"Francis J. Varieur School","school_type":"public","street":"486 Pleasant Street","city":"Pawtucket","state":"RI","zip":"02860","grades_high":5,"grade_bucket":"Elementary","lat":41.866019,"lon":-71.38331,"district_geoid":"4400840","district_name":"Pawtucket","source":"NCES_CCD_2024_2025","nces_id":"440084000194"}},{"type":"Feature","geometry":{"type":"Point","coordinates":[-71.374866,41.886507]},"properties":{"id":"public_440084000195","name":"Henry J. Winters School","school_type":"public","street":"481 Broadway","city":"Pawtucket","state":"RI","zip":"02860","grades_high":5,"grade_bucket":"Elementary","lat":41.886507,"lon":-71.374866,"district_geoid":"4400840","district_name":"Pawtucket","source":"NCES_CCD_2024_2025","nces_id":"440084000195"}},{"type":"Feature","geometry":{"type":"Point","coordinates":[-71.353773,41.881848]},"properties":{"id":"public_440084000196","name":"Potter-Burns School","school_type":"public","street":"973 Newport Avenue","city":"Pawtucket","state":"RI","zip":"02861","grades_high":5,"grade_bucket":"Elementary","lat":41.881848,"lon":-71.353773,"district_geoid":"4400840","district_name":"Pawtucket","source":"NCES_CCD_2024_2025","nces_id":"440084000196"}},{"type":"Feature","geometry":{"type":"Point","coordinates":[-71.370951,41.87564]},"properties":{"id":"public_440084000197","name":"Joseph Jenks Middle School","school_type":"public","street":"350 Division Street","city":"Pawtucket","state":"RI","zip":"02860","grades_low":6,"grades_high":8,"grade_bucket":"Middle","lat":41.87564,"lon":-71.370951,"district_geoid":"4400840","district_name":"Pawtucket","source":"NCES_CCD_2024_2025","nces_id":"440084000197"}},{"type":"Feature","geometry":{"type":"Point","coordinates":[-71.354656,41.88161]},"properties":{"id":"public_440084000198","name":"Lyman B. Goff Middle School","school_type":"public","street":"974 Newport Avenue","city":"Pawtucket","state":"RI","zip":"02861","grades_low":6,"grades_high":8,"grade_bucket":"Middle","lat":41.88161,"lon":-71.354656,"district_geoid":"4400840","district_name":"Pawtucket","source":"NCES_CCD_2024_2025","nces_id":"440084000198"}},{"type":"Feature","geometry":{"type":"Point","coordinates":[-71.412225,41.867893]},"properties":{"id":"public_440084000199","name":"Nathanael Greene School","school_type":"public","street":"285 Smithfield Ave  Pawtucket  RI 02860","city":"Pawtucket","state":"RI","zip":"02861","grades_high":5,"grade_bucket":"Elementary","lat":41.867893,"lon":-71.412225,"district_geoid":"4400840","district_name":"Pawtucket","source":"NCES_CCD_2024_2025","nces_id":"440084000199"}},{"type":"Feature","geometry":{"type":"Point","coordinates":[-71.400316,41.874423]},"properties":{"id":"public_440084000200","name":"Samuel Slater Middle School","school_type":"public","street":"281 Mineral Spring Avenue","city":"Pawtucket","state":"RI","zip":"02860","grades_low":6,"grades_high":8,"grade_bucket":"Middle","lat":41.874423,"lon":-71.400316,"district_geoid":"4400840","district_name":"Pawtucket","source":"NCES_CCD_2024_2025","nces_id":"440084000200"}},{"type":"Feature","geometry":{"type":"Point","coordinates":[-71.388072,41.865226]},"properties":{"id":"public_440084000201","name":"Charles E. Shea High School","school_type":"public","street":"485 East Avenue","city":"Pawtucket","state":"RI","zip":"02860","grades_low":9,"grades_high":12,"grade_bucket":"High","lat":41.865226,"lon":-71.388072,"district_geoid":"4400840","district_name":"Pawtucket","source":"NCES_CCD_2024_2025","nces_id":"440084000201"}},{"type":"Feature","geometry":{"type":"Point","coordinates":[-71.380632,41.88043]},"properties":{"id":"public_440084000202","name":"William E. Tolman High","school_type":"public","street":"150 Exchange Street","city":"Pawtucket","state":"RI","zip":"02860","grades_low":9,"grades_high":12,"grade_bucket":"High","lat":41.88043,"lon":-71.380632,"district_geoid":"4400840","district_name":"Pawtucket","source":"NCES_CCD_2024_2025","nces_id":"440084000202"}},{"type":"Feature","geometry":{"type":"Point","coordinates":[-71.370951,41.87564]},"properties":{"id":"public_440084000466","name":"Jacqueline M. Walsh School","school_type":"public","street":"350 Divison Street","city":"Pawtucket","state":"RI","zip":"02860","grades_low":9,"grades_high":12,"grade_bucket":"High","lat":41.87564,"lon":-71.370951,"district_geoid":"4400840","district_name":"Pawtucket","source":"NCES_CCD_2024_2025","nces_id":"440084000466"}},{"type":"Feature","geometry":{"type":"Point","coordinates":[-71.244563,41.616731]},"properties":{"id":"public_440087000204","name":"Howard Hathaway School","school_type":"public","street":"53 Tallman Avenue","city":"Portsmouth","state":"RI","zip":"02871","grades_high":4,"grade_bucket":"Elementary","lat":41.616731,"lon":-71.244563,"district_geoid":"4400870","district_name":"Portsmouth","source":"NCES_CCD_2024_2025","nces_id":"440087000204"}},{"type":"Feature","geometry":{"type":"Point","coordinates":[-71.270166,41.582653]},"properties":{"id":"public_440087000206","name":"Melville School","school_type":"public","street":"1351 West Main Road","city":"Portsmouth","state":"RI","zip":"02871","grades_high":4,"grade_bucket":"Elementary","lat":41.582653,"lon":-71.270166,"district_geoid":"4400870","district_name":"Portsmouth","source":"NCES_CCD_2024_2025","nces_id":"440087000206"}},{"type":"Feature","geometry":{"type":"Point","coordinates":[-71.249406,41.612596]},"properties":{"id":"public_440087000207","name":"Portsmouth High School","school_type":"public","street":"120 Education Lane","city":"Portsmouth","state":"RI","zip":"02871","grades_low":9,"grades_high":12,"grade_bucket":"High","lat":41.612596,"lon":-71.249406,"district_geoid":"4400870","district_name":"Portsmouth","source":"NCES_CCD_2024_2025","nces_id":"440087000207"}},{"type":"Feature","geometry":{"type":"Point","coordinates":[-71.285284,41.555224]},"properties":{"id":"public_440087000208","name":"Portsmouth Middle School","school_type":"public","street":"125 Jepson Lane","city":"Portsmouth","state":"RI","zip":"02871","grades_low":5,"grades_high":8,"grade_bucket":"Elementary","lat":41.555224,"lon":-71.285284,"district_geoid":"4400870","district_name":"Portsmouth","source":"NCES_CCD_2024_2025","nces_id":"440087000208"}},{"type":"Feature","geometry":{"type":"Point","coordinates":[-71.434121,41.851013]},"properties":{"id":"public_440090000013","name":"Veazie Street School","school_type":"public","street":"211 Veazie Street","city":"Providence","state":"RI","zip":"02904","grades_high":5,"grade_bucket":"Elementary","lat":41.851013,"lon":-71.434121,"district_geoid":"4400900","district_name":"Providence","source":"NCES_CCD_2024_2025","nces_id":"440090000013"}},{"type":"Feature","geometry":{"type":"Point","coordinates":[-71.415868,41.803301]},"properties":{"id":"public_440090000071","name":"Robert L. Bailey IV","school_type":"public","street":"65 Gordon Avenue","city":"Providence","state":"RI","zip":"02905","grades_high":5,"grade_bucket":"Elementary","lat":41.803301,"lon":-71.415868,"district_geoid":"4400900","district_name":"Providence","source":"NCES_CCD_2024_2025","nces_id":"440090000071"}},{"type":"Feature","geometry":{"type":"Point","coordinates":[-71.42931,41.803843]},"properties":{"id":"public_440090000124","name":"Alfred Lima Sr. El School","school_type":"public","street":"222 Daboll Street","city":"Providence","state":"RI","zip":"02907","grades_high":5,"grade_bucket":"Elementary","lat":41.803843,"lon":-71.42931,"district_geoid":"4400900","district_name":"Providence","source":"NCES_CCD_2024_2025","nces_id":"440090000124"}},{"type":"Feature","geometry":{"type":"Point","coordinates":[-71.409862,41.79668]},"properties":{"id":"public_440090000156","name":"Cornel Young & Charlotte Woods","school_type":"public","street":"674 Prairie Avenue","city":"Providence","state":"RI","zip":"02905","grades_high":5,"grade_bucket":"Elementary","lat":41.79668,"lon":-71.409862,"district_geoid":"4400900","district_name":"Providence","source":"NCES_CCD_2024_2025","nces_id":"440090000156"}},{"type":"Feature","geometry":{"type":"Point","coordinates":[-71.46463,41.81671]},"properties":{"id":"public_440090000162","name":"Anthony Carnevale Elementary","school_type":"public","street":"50 Springfield Street","city":"Providence","state":"RI","zip":"02909","grades_high":5,"grade_bucket":"Elementary","lat":41.81671,"lon":-71.46463,"district_geoid":"4400900","district_name":"Providence","source":"NCES_CCD_2024_2025","nces_id":"440090000162"}},{"type":"Feature","geometry":{"type":"Point","coordinates":[-71.46555,41.818512]},"properties":{"id":"public_440090000175","name":"Governor Christopher DelSesto","school_type":"public","street":"152 Springfield Street","city":"Providence","state":"RI","zip":"02909","grades_low":6,"grades_high":8,"grade_bucket":"Middle","lat":41.818512,"lon":-71.46555,"district_geoid":"4400900","district_name":"Providence","source":"NCES_CCD_2024_2025","nces_id":"440090000175"}},{"type":"Feature","geometry":{"type":"Point","coordinates":[-71.407739,41.799052]},"properties":{"id":"public_440090000209","name":"W B Cooley & Acad Internationa","school_type":"public","street":"182 Thurbers Avenue","city":"Providence","state":"RI","zip":"02905","grades_low":9,"grades_high":12,"grade_bucket":"High","lat":41.799052,"lon":-71.407739,"district_geoid":"4400900","district_name":"Providence","source":"NCES_CCD_2024_2025","nces_id":"440090000209"}},{"type":"Feature","geometry":{"type":"Point","coordinates":[-71.437284,41.816304]},"properties":{"id":"public_440090000213","name":"Asa Messer El. School","school_type":"public","street":"1655 Westminster Street","city":"Providence","state":"RI","zip":"02909","grades_high":4,"grade_bucket":"Elementary","lat":41.816304,"lon":-71.437284,"district_geoid":"4400900","district_name":"Providence","source":"NCES_CCD_2024_2025","nces_id":"440090000213"}},{"type":"Feature","geometry":{"type":"Point","coordinates":[-71.4264,41.836954]},"properties":{"id":"public_440090000216","name":"Harry Kizirian Elementary","school_type":"public","street":"60 Camden Avenue","city":"Providence","state":"RI","zip":"02908","grades_high":5,"grade_bucket":"Elementary","lat":41.836954,"lon":-71.4264,"district_geoid":"4400900","district_name":"Providence","source":"NCES_CCD_2024_2025","nces_id":"440090000216"}},{"type":"Feature","geometry":{"type":"Point","coordinates":[-71.420862,41.816536]},"properties":{"id":"public_440090000217","name":"Central High School","school_type":"public","street":"70 Fricker Street","city":"Providence","state":"RI","zip":"02903","grades_low":9,"grades_high":12,"grade_bucket":"High","lat":41.816536,"lon":-71.420862,"district_geoid":"4400900","district_name":"Providence","source":"NCES_CCD_2024_2025","nces_id":"440090000217"}},{"type":"Feature","geometry":{"type":"Point","coordinates":[-71.420734,41.817493]},"properties":{"id":"public_440090000218","name":"Classical High School","school_type":"public","street":"770 Westminster Street","city":"Providence","state":"RI","zip":"02903","grades_low":9,"grades_high":12,"grade_bucket":"High","lat":41.817493,"lon":-71.420734,"district_geoid":"4400900","district_name":"Providence","source":"NCES_CCD_2024_2025","nces_id":"440090000218"}},{"type":"Feature","geometry":{"type":"Point","coordinates":[-71.39393,41.81964]},"properties":{"id":"public_440090000221","name":"Vartan Gregorian El. School","school_type":"public","street":"455 Wickenden Street","city":"Providence","state":"RI","zip":"02903","grades_high":5,"grade_bucket":"Elementary","lat":41.81964,"lon":-71.39393,"district_geoid":"4400900","district_name":"Providence","source":"NCES_CCD_2024_2025","nces_id":"440090000221"}},{"type":"Feature","geometry":{"type":"Point","coordinates":[-71.450307,41.830723]},"properties":{"id":"public_440090000222","name":"George J. West El. School","school_type":"public","street":"145 Beaufort Street","city":"Providence","state":"RI","zip":"02908","grades_high":5,"grade_bucket":"Elementary","lat":41.830723,"lon":-71.450307,"district_geoid":"4400900","district_name":"Providence","source":"NCES_CCD_2024_2025","nces_id":"440090000222"}},{"type":"Feature","geometry":{"type":"Point","coordinates":[-71.427083,41.804967]},"properties":{"id":"public_440090000223","name":"Gilbert Stuart Middle School","school_type":"public","street":"188 Princeton Avenue","city":"Providence","state":"RI","zip":"02907","grade_bucket":"Other","lat":41.804967,"lon":-71.427083,"district_geoid":"4400900","district_name":"Providence","source":"NCES_CCD_2024_2025","nces_id":"440090000223"}},{"type":"Feature","geometry":{"type":"Point","coordinates":[-71.402076,41.83473]},"properties":{"id":"public_440090000224","name":"Hope High School","school_type":"public","street":"324 Hope Street","city":"Providence","state":"RI","zip":"02906","grades_low":9,"grades_high":12,"grade_bucket":"High","lat":41.83473,"lon":-71.402076,"district_geoid":"4400900","district_name":"Providence","source":"NCES_CCD_2024_2025","nces_id":"440090000224"}},{"type":"Feature","geometry":{"type":"Point","coordinates":[-71.456107,41.815569]},"properties":{"id":"public_440090000228","name":"Frank D. Spaziano Elem School","school_type":"public","street":"35 Merino Street","city":"Providence","state":"RI","zip":"02909","grades_high":5,"grade_bucket":"Elementary","lat":41.815569,"lon":-71.456107,"district_geoid":"4400900","district_name":"Providence","source":"NCES_CCD_2024_2025","nces_id":"440090000228"}},{"type":"Feature","geometry":{"type":"Point","coordinates":[-71.403963,41.837114]},"properties":{"id":"public_440090000230","name":"Martin Luther King El. School","school_type":"public","street":"35 Camp Street","city":"Providence","state":"RI","zip":"02906","grades_high":5,"grade_bucket":"Elementary","lat":41.837114,"lon":-71.403963,"district_geoid":"4400900","district_name":"Providence","source":"NCES_CCD_2024_2025","nces_id":"440090000230"}},{"type":"Feature","geometry":{"type":"Point","coordinates":[-71.411043,41.802745]},"properties":{"id":"public_440090000231","name":"Mary E. Fogarty El. School","school_type":"public","street":"85 Laurel Hill Ave","city":"Providence","state":"RI","zip":"02909","grades_high":5,"grade_bucket":"Elementary","lat":41.802745,"lon":-71.411043,"district_geoid":"4400900","district_name":"Providence","source":"NCES_CCD_2024_2025","nces_id":"440090000231"}},{"type":"Feature","geometry":{"type":"Point","coordinates":[-71.45296,41.839651]},"properties":{"id":"public_440090000232","name":"Mount Pleasant High","school_type":"public","street":"434 Mt. Pleasant Avenue","city":"Providence","state":"RI","zip":"02908","grades_low":9,"grades_high":12,"grade_bucket":"High","lat":41.839651,"lon":-71.45296,"district_geoid":"4400900","district_name":"Providence","source":"NCES_CCD_2024_2025","nces_id":"440090000232"}},{"type":"Feature","geometry":{"type":"Point","coordinates":[-71.431396,41.834645]},"properties":{"id":"public_440090000234","name":"Nathanael Greene Middle","school_type":"public","street":"721 Chalkstone Avenue","city":"Providence","state":"RI","zip":"02908","grades_low":6,"grades_high":8,"grade_bucket":"Middle","lat":41.834645,"lon":-71.431396,"district_geoid":"4400900","district_name":"Providence","source":"NCES_CCD_2024_2025","nces_id":"440090000234"}},{"type":"Feature","geometry":{"type":"Point","coordinates":[-71.462247,41.834943]},"properties":{"id":"public_440090000236","name":"Pleasant View School","school_type":"public","street":"50 Obediah Brown Road","city":"Providence","state":"RI","zip":"02909","grades_high":5,"grade_bucket":"Elementary","lat":41.834943,"lon":-71.462247,"district_geoid":"4400900","district_name":"Providence","source":"NCES_CCD_2024_2025","nces_id":"440090000236"}},{"type":"Feature","geometry":{"type":"Point","coordinates":[-71.429105,41.802514]},"properties":{"id":"public_440090000237","name":"Leviton Dual Language School","school_type":"public","street":"65 Greenwich Street","city":"Providence","state":"RI","zip":"02907","grades_high":5,"grade_bucket":"Elementary","lat":41.802514,"lon":-71.429105,"district_geoid":"4400900","district_name":"Providence","source":"NCES_CCD_2024_2025","nces_id":"440090000237"}},{"type":"Feature","geometry":{"type":"Point","coordinates":[-71.42781,41.791675]},"properties":{"id":"public_440090000240","name":"Reservoir Avenue School","school_type":"public","street":"156 Reservoir Avenue","city":"Providence","state":"RI","zip":"02907","grades_high":5,"grade_bucket":"Elementary","lat":41.791675,"lon":-71.42781,"district_geoid":"4400900","district_name":"Providence","source":"NCES_CCD_2024_2025","nces_id":"440090000240"}},{"type":"Feature","geometry":{"type":"Point","coordinates":[-71.443791,41.843013]},"properties":{"id":"public_440090000241","name":"Robert F. Kennedy El. School","school_type":"public","street":"195 Nelson Street","city":"Providence","state":"RI","zip":"02908","grades_high":5,"grade_bucket":"Elementary","lat":41.843013,"lon":-71.443791,"district_geoid":"4400900","district_name":"Providence","source":"NCES_CCD_2024_2025","nces_id":"440090000241"}},{"type":"Feature","geometry":{"type":"Point","coordinates":[-71.410781,41.79849]},"properties":{"id":"public_440090000242","name":"Roger Williams Middle","school_type":"public","street":"278 Thurbers Avenue","city":"Providence","state":"RI","zip":"02905","grades_low":6,"grades_high":8,"grade_bucket":"Middle","lat":41.79849,"lon":-71.410781,"district_geoid":"4400900","district_name":"Providence","source":"NCES_CCD_2024_2025","nces_id":"440090000242"}},{"type":"Feature","geometry":{"type":"Point","coordinates":[-71.419178,41.79423]},"properties":{"id":"public_440090000243","name":"Lillian Feinstein El. School","school_type":"public","street":"159 Sackett Street","city":"Providence","state":"RI","zip":"02907","grades_high":5,"grade_bucket":"Elementary","lat":41.79423,"lon":-71.419178,"district_geoid":"4400900","district_name":"Providence","source":"NCES_CCD_2024_2025","nces_id":"440090000243"}},{"type":"Feature","geometry":{"type":"Point","coordinates":[-71.449559,41.810167]},"properties":{"id":"public_440090000247","name":"Webster Avenue School","school_type":"public","street":"191 Webster Avenue","city":"Providence","state":"RI","zip":"02909","grades_high":5,"grade_bucket":"Elementary","lat":41.810167,"lon":-71.449559,"district_geoid":"4400900","district_name":"Providence","source":"NCES_CCD_2024_2025","nces_id":"440090000247"}},{"type":"Feature","geometry":{"type":"Point","coordinates":[-71.446638,41.821706]},"properties":{"id":"public_440090000248","name":"William D'Abate Elem. School","school_type":"public","street":"60 Kossuth Street","city":"Providence","state":"RI","zip":"02909","grades_high":5,"grade_bucket":"Elementary","lat":41.821706,"lon":-71.446638,"district_geoid":"4400900","district_name":"Providence","source":"NCES_CCD_2024_2025","nces_id":"440090000248"}},{"type":"Feature","geometry":{"type":"Point","coordinates":[-71.434213,41.85431]},"properties":{"id":"public_440090000323","name":"E-Cubed Academy","school_type":"public","street":"812 Branch Avenue","city":"Providence","state":"RI","zip":"02904","grades_low":9,"grades_high":12,"grade_bucket":"High","lat":41.85431,"lon":-71.434213,"district_geoid":"4400900","district_name":"Providence","source":"NCES_CCD_2024_2025","nces_id":"440090000323"}},{"type":"Feature","geometry":{"type":"Point","coordinates":[-71.42160371986,41.816273936533]},"properties":{"id":"public_440090000328","name":"Bridge Academy","school_type":"public","street":"91 Fricker Street","city":"Providence","state":"RI","zip":"02903","grades_low":10,"grades_high":12,"grade_bucket":"High","lat":41.816273936533,"lon":-71.42160371986,"district_geoid":"4400900","district_name":"Providence","source":"NCES_CCD_2024_2025","nces_id":"440090000328"}},{"type":"Feature","geometry":{"type":"Point","coordinates":[-71.430201,41.795167]},"properties":{"id":"public_440090000344","name":"Dr. Jorge Alvarez HS","school_type":"public","street":"375 Adelaide Avenue","city":"Providence","state":"RI","zip":"02907","grades_low":9,"grades_high":12,"grade_bucket":"High","lat":41.795167,"lon":-71.430201,"district_geoid":"4400900","district_name":"Providence","source":"NCES_CCD_2024_2025","nces_id":"440090000344"}},{"type":"Feature","geometry":{"type":"Point","coordinates":[-71.419952,41.848404]},"properties":{"id":"public_440090000401","name":"Esek Hopkins Middle","school_type":"public","street":"480 Charles Street","city":"Providence","state":"RI","zip":"02904","grades_low":6,"grades_high":8,"grade_bucket":"Middle","lat":41.848404,"lon":-71.419952,"district_geoid":"4400900","district_name":"Providence","source":"NCES_CCD_2024_2025","nces_id":"440090000401"}},{"type":"Feature","geometry":{"type":"Point","coordinates":[-71.422331,41.816376]},"properties":{"id":"public_440090000467","name":"Providence Career Technical","school_type":"public","street":"41 Fricker street","city":"Providence","state":"RI","zip":"02903","grades_low":9,"grades_high":12,"grade_bucket":"High","lat":41.816376,"lon":-71.422331,"district_geoid":"4400900","district_name":"Providence","source":"NCES_CCD_2024_2025","nces_id":"440090000467"}},{"type":"Feature","geometry":{"type":"Point","coordinates":[-71.393511,41.84076]},"properties":{"id":"public_440090000474","name":"Nathan Bishop Middle","school_type":"public","street":"101 Sessions Street","city":"Providence","state":"RI","zip":"02906","grades_low":6,"grades_high":8,"grade_bucket":"Middle","lat":41.84076,"lon":-71.393511,"district_geoid":"4400900","district_name":"Providence","source":"NCES_CCD_2024_2025","nces_id":"440090000474"}},{"type":"Feature","geometry":{"type":"Point","coordinates":[-71.436037,41.817402]},"properties":{"id":"public_440090000491","name":"West Broadway Middle School","school_type":"public","street":"29 Bainbridge Avenue","city":"Providence","state":"RI","zip":"02909","grades_low":5,"grades_high":8,"grade_bucket":"Elementary","lat":41.817402,"lon":-71.436037,"district_geoid":"4400900","district_name":"Providence","source":"NCES_CCD_2024_2025","nces_id":"440090000491"}},{"type":"Feature","geometry":{"type":"Point","coordinates":[-71.40769,41.799218]},"properties":{"id":"public_440090000492","name":"360 High School","school_type":"public","street":"182 Thurbers Avenue","city":"Providence","state":"RI","zip":"02905","grade_bucket":"Other","lat":41.799218,"lon":-71.40769,"district_geoid":"4400900","district_name":"Providence","source":"NCES_CCD_2024_2025","nces_id":"440090000492"}},{"type":"Feature","geometry":{"type":"Point","coordinates":[-71.422149,41.838094]},"properties":{"id":"public_440090000528","name":"Times2 Elementary School","school_type":"public","street":"50 Fillmore Street","city":"Providence","state":"RI","zip":"02908","grades_high":5,"grade_bucket":"Elementary","lat":41.838094,"lon":-71.422149,"district_geoid":"4400900","district_name":"Providence","source":"NCES_CCD_2024_2025","nces_id":"440090000528"}},{"type":"Feature","geometry":{"type":"Point","coordinates":[-71.422149,41.838094]},"properties":{"id":"public_440090000530","name":"Times2 Middle/High School","school_type":"public","street":"50 Fillmore Street","city":"Providence","state":"RI","zip":"02908","grades_low":6,"grades_high":12,"grade_bucket":"High","lat":41.838094,"lon":-71.422149,"district_geoid":"4400900","district_name":"Providence","source":"NCES_CCD_2024_2025","nces_id":"440090000530"}},{"type":"Feature","geometry":{"type":"Point","coordinates":[-71.419871247192,41.850282403937]},"properties":{"id":"public_440090000547","name":"Aventure Academy","school_type":"public","street":"425 Branch ave.","city":"Providence","state":"RI","zip":"02904","grades_low":9,"grades_high":12,"grade_bucket":"High","lat":41.850282403937,"lon":-71.419871247192,"district_geoid":"4400900","district_name":"Providence","source":"NCES_CCD_2024_2025","nces_id":"440090000547"}},{"type":"Feature","geometry":{"type":"Point","coordinates":[-71.620875,41.824592]},"properties":{"id":"public_440096000036","name":"Scituate Middle School","school_type":"public","street":"94 Trimtown Road","city":"North Scituate","state":"RI","zip":"02857","grades_low":6,"grades_high":8,"grade_bucket":"Middle","lat":41.824592,"lon":-71.620875,"district_geoid":"4400960","district_name":"Scituate","source":"NCES_CCD_2024_2025","nces_id":"440096000036"}},{"type":"Feature","geometry":{"type":"Point","coordinates":[-71.670962,41.772051]},"properties":{"id":"public_440096000252","name":"Clayville School","school_type":"public","street":"3 George Washington Highway","city":"Clayville","state":"RI","zip":"02815","grades_high":5,"grade_bucket":"Elementary","lat":41.772051,"lon":-71.670962,"district_geoid":"4400960","district_name":"Scituate","source":"NCES_CCD_2024_2025","nces_id":"440096000252"}},{"type":"Feature","geometry":{"type":"Point","coordinates":[-71.562703,41.735911]},"properties":{"id":"public_440096000253","name":"Hope School","school_type":"public","street":"391 North Road","city":"Hope","state":"RI","zip":"02831","grades_high":5,"grade_bucket":"Elementary","lat":41.735911,"lon":-71.562703,"district_geoid":"4400960","district_name":"Scituate","source":"NCES_CCD_2024_2025","nces_id":"440096000253"}},{"type":"Feature","geometry":{"type":"Point","coordinates":[-71.584483,41.83349]},"properties":{"id":"public_440096000254","name":"North Scituate School","school_type":"public","street":"46 Institute Lane","city":"North Scituate","state":"RI","zip":"02857","grades_high":5,"grade_bucket":"Elementary","lat":41.83349,"lon":-71.584483,"district_geoid":"4400960","district_name":"Scituate","source":"NCES_CCD_2024_2025","nces_id":"440096000254"}},{"type":"Feature","geometry":{"type":"Point","coordinates":[-71.620875,41.824592]},"properties":{"id":"public_440096000255","name":"Scituate High School","school_type":"public","street":"94 Trimtown Road","city":"North Scituate","state":"RI","zip":"02857","grades_low":9,"grades_high":12,"grade_bucket":"High","lat":41.824592,"lon":-71.620875,"district_geoid":"4400960","district_name":"Scituate","source":"NCES_CCD_2024_2025","nces_id":"440096000255"}},{"type":"Feature","geometry":{"type":"Point","coordinates":[-71.504707,41.899632]},"properties":{"id":"public_440099000257","name":"Raymond LaPerche School","school_type":"public","street":"11 Limerock Road","city":"Smithfield","state":"RI","zip":"02917","grades_high":5,"grade_bucket":"Elementary","lat":41.899632,"lon":-71.504707,"district_geoid":"4400990","district_name":"Smithfield","source":"NCES_CCD_2024_2025","nces_id":"440099000257"}},{"type":"Feature","geometry":{"type":"Point","coordinates":[-71.511993,41.882789]},"properties":{"id":"public_440099000258","name":"Old County Road School","school_type":"public","street":"200 Old County Road","city":"Smithfield","state":"RI","zip":"02917","grades_high":5,"grade_bucket":"Elementary","lat":41.882789,"lon":-71.511993,"district_geoid":"4400990","district_name":"Smithfield","source":"NCES_CCD_2024_2025","nces_id":"440099000258"}},{"type":"Feature","geometry":{"type":"Point","coordinates":[-71.54398,41.880809]},"properties":{"id":"public_440099000259","name":"Smithfield High School","school_type":"public","street":"90 Pleasant View Avenue","city":"Smithfield","state":"RI","zip":"02917","grades_low":9,"grades_high":12,"grade_bucket":"High","lat":41.880809,"lon":-71.54398,"district_geoid":"4400990","district_name":"Smithfield","source":"NCES_CCD_2024_2025","nces_id":"440099000259"}},{"type":"Feature","geometry":{"type":"Point","coordinates":[-71.542892,41.883799]},"properties":{"id":"public_440099000260","name":"Vincent J. Gallagher Middle","school_type":"public","street":"10 Indian Run Trail","city":"Smithfield","state":"RI","zip":"02917","grades_low":6,"grades_high":8,"grade_bucket":"Middle","lat":41.883799,"lon":-71.542892,"district_geoid":"4400990","district_name":"Smithfield","source":"NCES_CCD_2024_2025","nces_id":"440099000260"}},{"type":"Feature","geometry":{"type":"Point","coordinates":[-71.541584,41.881123]},"properties":{"id":"public_440099000537","name":"Pleasant View Elementary Schoo","school_type":"public","street":"100 Pleasant View Ave.","city":"Smithfield","state":"RI","zip":"02917","grades_high":5,"grade_bucket":"Elementary","lat":41.881123,"lon":-71.541584,"district_geoid":"4400990","district_name":"Smithfield","source":"NCES_CCD_2024_2025","nces_id":"440099000537"}},{"type":"Feature","geometry":{"type":"Point","coordinates":[-71.484723,41.456596]},"properties":{"id":"public_440102000210","name":"Broad Rock Middle School","school_type":"public","street":"351 Broad Rock Road","city":"Wakefield","state":"RI","zip":"02879","grades_low":6,"grades_high":8,"grade_bucket":"Middle","lat":41.456596,"lon":-71.484723,"district_geoid":"4401020","district_name":"South Kingstown","source":"NCES_CCD_2024_2025","nces_id":"440102000210"}},{"type":"Feature","geometry":{"type":"Point","coordinates":[-71.54647,41.386226]},"properties":{"id":"public_440102000263","name":"Matunuck School","school_type":"public","street":"380 Matunuck Beach Road","city":"Wakefield","state":"RI","zip":"02879","grades_high":5,"grade_bucket":"Elementary","lat":41.386226,"lon":-71.54647,"district_geoid":"4401020","district_name":"South Kingstown","source":"NCES_CCD_2024_2025","nces_id":"440102000263"}},{"type":"Feature","geometry":{"type":"Point","coordinates":[-71.500896,41.45431]},"properties":{"id":"public_440102000264","name":"Peace Dale School","school_type":"public","street":"109  Kersey Road","city":"Peace Dale","state":"RI","zip":"02879","grades_high":5,"grade_bucket":"Elementary","lat":41.45431,"lon":-71.500896,"district_geoid":"4401020","district_name":"South Kingstown","source":"NCES_CCD_2024_2025","nces_id":"440102000264"}},{"type":"Feature","geometry":{"type":"Point","coordinates":[-71.494976,41.44659]},"properties":{"id":"public_440102000265","name":"South Kingstown High","school_type":"public","street":"215 Columbia Street","city":"Wakefield","state":"RI","zip":"02879","grades_low":9,"grades_high":12,"grade_bucket":"High","lat":41.44659,"lon":-71.494976,"district_geoid":"4401020","district_name":"South Kingstown","source":"NCES_CCD_2024_2025","nces_id":"440102000265"}},{"type":"Feature","geometry":{"type":"Point","coordinates":[-71.550449,41.478391]},"properties":{"id":"public_440102000270","name":"West Kingston School","school_type":"public","street":"3119 Ministerial Road","city":"West Kingston","state":"RI","zip":"02892","grades_high":5,"grade_bucket":"Elementary","lat":41.478391,"lon":-71.550449,"district_geoid":"4401020","district_name":"South Kingstown","source":"NCES_CCD_2024_2025","nces_id":"440102000270"}},{"type":"Feature","geometry":{"type":"Point","coordinates":[-71.186305,41.666501]},"properties":{"id":"public_440105000273","name":"Pocasset School","school_type":"public","street":"242 Main Road","city":"Tiverton","state":"RI","zip":"02878","grades_high":4,"grade_bucket":"Elementary","lat":41.666501,"lon":-71.186305,"district_geoid":"4401050","district_name":"Tiverton","source":"NCES_CCD_2024_2025","nces_id":"440105000273"}},{"type":"Feature","geometry":{"type":"Point","coordinates":[-71.165378,41.628637]},"properties":{"id":"public_440105000274","name":"Tiverton High School","school_type":"public","street":"100 North Brayton Road","city":"Tiverton","state":"RI","zip":"02878","grades_low":9,"grades_high":12,"grade_bucket":"High","lat":41.628637,"lon":-71.165378,"district_geoid":"4401050","district_name":"Tiverton","source":"NCES_CCD_2024_2025","nces_id":"440105000274"}},{"type":"Feature","geometry":{"type":"Point","coordinates":[-71.159375,41.628419]},"properties":{"id":"public_440105000275","name":"Tiverton Middle School","school_type":"public","street":"10 Quintal Drive","city":"Tiverton","state":"RI","zip":"02878","grades_low":5,"grades_high":8,"grade_bucket":"Elementary","lat":41.628419,"lon":-71.159375,"district_geoid":"4401050","district_name":"Tiverton","source":"NCES_CCD_2024_2025","nces_id":"440105000275"}},{"type":"Feature","geometry":{"type":"Point","coordinates":[-71.164768,41.63246]},"properties":{"id":"public_440105000276","name":"Ranger School","school_type":"public","street":"278 North Brayton Road","city":"Tiverton","state":"RI","zip":"02878","grades_high":4,"grade_bucket":"Elementary","lat":41.63246,"lon":-71.164768,"district_geoid":"4401050","district_name":"Tiverton","source":"NCES_CCD_2024_2025","nces_id":"440105000276"}},{"type":"Feature","geometry":{"type":"Point","coordinates":[-71.209584,41.624932]},"properties":{"id":"public_440105000357","name":"Fort Barton School","school_type":"public","street":"99 Lawton Avenue","city":"Tiverton","state":"RI","zip":"02878","grades_high":4,"grade_bucket":"Elementary","lat":41.624932,"lon":-71.209584,"district_geoid":"4401050","district_name":"Tiverton","source":"NCES_CCD_2024_2025","nces_id":"440105000357"}},{"type":"Feature","geometry":{"type":"Point","coordinates":[-71.46418,41.684183]},"properties":{"id":"public_440111000285","name":"Cedar Hill School","school_type":"public","street":"35 Red Chimney Drive","city":"Warwick","state":"RI","zip":"02886","grades_high":5,"grade_bucket":"Elementary","lat":41.684183,"lon":-71.46418,"district_geoid":"4401110","district_name":"Warwick","source":"NCES_CCD_2024_2025","nces_id":"440111000285"}},{"type":"Feature","geometry":{"type":"Point","coordinates":[-71.404941,41.74351]},"properties":{"id":"public_440111000287","name":"Warwick Early Learning Center","school_type":"public","street":"325 Miantonomo Drive","city":"Warwick","state":"RI","zip":"02888","grade_bucket":"Other","lat":41.74351,"lon":-71.404941,"district_geoid":"4401110","district_name":"Warwick","source":"NCES_CCD_2024_2025","nces_id":"440111000287"}},{"type":"Feature","geometry":{"type":"Point","coordinates":[-71.45434,41.710678]},"properties":{"id":"public_440111000291","name":"Greenwood School","school_type":"public","street":"93 Sharon Street","city":"Warwick","state":"RI","zip":"02886","grades_high":5,"grade_bucket":"Elementary","lat":41.710678,"lon":-71.45434,"district_geoid":"4401110","district_name":"Warwick","source":"NCES_CCD_2024_2025","nces_id":"440111000291"}},{"type":"Feature","geometry":{"type":"Point","coordinates":[-71.412809,41.749133]},"properties":{"id":"public_440111000293","name":"Holliman School","school_type":"public","street":"WPS Administration Building, 69 Draper Ave","city":"Warwick","state":"RI","zip":"02888","grades_high":5,"grade_bucket":"Elementary","lat":41.749133,"lon":-71.412809,"district_geoid":"4401110","district_name":"Warwick","source":"NCES_CCD_2024_2025","nces_id":"440111000293"}},{"type":"Feature","geometry":{"type":"Point","coordinates":[-71.399751,41.728818]},"properties":{"id":"public_440111000294","name":"Hoxsie School","school_type":"public","street":"55 Glenwood Drive","city":"Warwick","state":"RI","zip":"02889","grades_high":5,"grade_bucket":"Elementary","lat":41.728818,"lon":-71.399751,"district_geoid":"4401110","district_name":"Warwick","source":"NCES_CCD_2024_2025","nces_id":"440111000294"}},{"type":"Feature","geometry":{"type":"Point","coordinates":[-71.42208,41.707571]},"properties":{"id":"public_440111000296","name":"Lippitt School","school_type":"public","street":"30 Almy Street","city":"Warwick","state":"RI","zip":"02886","grades_high":5,"grade_bucket":"Elementary","lat":41.707571,"lon":-71.42208,"district_geoid":"4401110","district_name":"Warwick","source":"NCES_CCD_2024_2025","nces_id":"440111000296"}},{"type":"Feature","geometry":{"type":"Point","coordinates":[-71.427191,41.75093]},"properties":{"id":"public_440111000298","name":"Norwood School","school_type":"public","street":"266 Norwood Avenue","city":"Warwick","state":"RI","zip":"02888","grades_high":5,"grade_bucket":"Elementary","lat":41.75093,"lon":-71.427191,"district_geoid":"4401110","district_name":"Warwick","source":"NCES_CCD_2024_2025","nces_id":"440111000298"}},{"type":"Feature","geometry":{"type":"Point","coordinates":[-71.399158,41.698865]},"properties":{"id":"public_440111000299","name":"Oakland Beach School","school_type":"public","street":"383 Oakland Beach Avenue","city":"Warwick","state":"RI","zip":"02889","grades_high":5,"grade_bucket":"Elementary","lat":41.698865,"lon":-71.399158,"district_geoid":"4401110","district_name":"Warwick","source":"NCES_CCD_2024_2025","nces_id":"440111000299"}},{"type":"Feature","geometry":{"type":"Point","coordinates":[-71.417263,41.692753]},"properties":{"id":"public_440111000300","name":"Park School","school_type":"public","street":"40 Asylum Road","city":"Warwick","state":"RI","zip":"02886","grades_high":5,"grade_bucket":"Elementary","lat":41.692753,"lon":-71.417263,"district_geoid":"4401110","district_name":"Warwick","source":"NCES_CCD_2024_2025","nces_id":"440111000300"}},{"type":"Feature","geometry":{"type":"Point","coordinates":[-71.41189,41.74624]},"properties":{"id":"public_440111000301","name":"Pilgrim High School","school_type":"public","street":"111 Pilgrim Parkway","city":"Warwick","state":"RI","zip":"02888","grades_low":9,"grades_high":12,"grade_bucket":"High","lat":41.74624,"lon":-71.41189,"district_geoid":"4401110","district_name":"Warwick","source":"NCES_CCD_2024_2025","nces_id":"440111000301"}},{"type":"Feature","geometry":{"type":"Point","coordinates":[-71.440213,41.698812]},"properties":{"id":"public_440111000304","name":"Robertson School","school_type":"public","street":"70 Nausauket Road","city":"Warwick","state":"RI","zip":"02886","grades_high":5,"grade_bucket":"Elementary","lat":41.698812,"lon":-71.440213,"district_geoid":"4401110","district_name":"Warwick","source":"NCES_CCD_2024_2025","nces_id":"440111000304"}},{"type":"Feature","geometry":{"type":"Point","coordinates":[-71.489915,41.699782]},"properties":{"id":"public_440111000305","name":"Scott School","school_type":"public","street":"833 Centerville Road","city":"Warwick","state":"RI","zip":"02886","grades_high":5,"grade_bucket":"Elementary","lat":41.699782,"lon":-71.489915,"district_geoid":"4401110","district_name":"Warwick","source":"NCES_CCD_2024_2025","nces_id":"440111000305"}},{"type":"Feature","geometry":{"type":"Point","coordinates":[-71.396334,41.718056]},"properties":{"id":"public_440111000306","name":"Sherman School","school_type":"public","street":"120 Killey Avenue","city":"Warwick","state":"RI","zip":"02889","grades_high":5,"grade_bucket":"Elementary","lat":41.718056,"lon":-71.396334,"district_geoid":"4401110","district_name":"Warwick","source":"NCES_CCD_2024_2025","nces_id":"440111000306"}},{"type":"Feature","geometry":{"type":"Point","coordinates":[-71.485945,41.703264]},"properties":{"id":"public_440111000307","name":"Toll Gate High School","school_type":"public","street":"575 Centerville Road","city":"Warwick","state":"RI","zip":"02886","grades_low":9,"grades_high":12,"grade_bucket":"High","lat":41.703264,"lon":-71.485945,"district_geoid":"4401110","district_name":"Warwick","source":"NCES_CCD_2024_2025","nces_id":"440111000307"}},{"type":"Feature","geometry":{"type":"Point","coordinates":[-71.377151,41.689733]},"properties":{"id":"public_440111000308","name":"Warwick Neck School","school_type":"public","street":"150 Lennox Avenue (formerly 155 Rocky Pt Ave)","city":"Warwick","state":"RI","zip":"02889","grades_high":5,"grade_bucket":"Elementary","lat":41.689733,"lon":-71.377151,"district_geoid":"4401110","district_name":"Warwick","source":"NCES_CCD_2024_2025","nces_id":"440111000308"}},{"type":"Feature","geometry":{"type":"Point","coordinates":[-71.485473,41.706191]},"properties":{"id":"public_440111000311","name":"Winman Middle School","school_type":"public","street":"575 Centerville Road","city":"Warwick","state":"RI","zip":"02886","grades_low":6,"grades_high":8,"grade_bucket":"Middle","lat":41.706191,"lon":-71.485473,"district_geoid":"4401110","district_name":"Warwick","source":"NCES_CCD_2024_2025","nces_id":"440111000311"}},{"type":"Feature","geometry":{"type":"Point","coordinates":[-71.390093,41.752696]},"properties":{"id":"public_440111000312","name":"Wyman School","school_type":"public","street":"1 Columbia Avenue","city":"Warwick","state":"RI","zip":"02888","grades_high":5,"grade_bucket":"Elementary","lat":41.752696,"lon":-71.390093,"district_geoid":"4401110","district_name":"Warwick","source":"NCES_CCD_2024_2025","nces_id":"440111000312"}},{"type":"Feature","geometry":{"type":"Point","coordinates":[-71.48687,41.702948]},"properties":{"id":"public_440111000462","name":"Warwick Career and Tech Center","school_type":"public","street":"575 Centerville Road-Bldg. 5","city":"Warwick","state":"RI","zip":"02886","grades_low":10,"grades_high":12,"grade_bucket":"High","lat":41.702948,"lon":-71.48687,"district_geoid":"4401110","district_name":"Warwick","source":"NCES_CCD_2024_2025","nces_id":"440111000462"}},{"type":"Feature","geometry":{"type":"Point","coordinates":[-71.409237,41.704726]},"properties":{"id":"public_440111000512","name":"Warwick Veterans Middle School","school_type":"public","street":"2401 West Shore Road","city":"Warwick","state":"RI","zip":"02889","grades_low":6,"grades_high":8,"grade_bucket":"Middle","lat":41.704726,"lon":-71.409237,"district_geoid":"4401110","district_name":"Warwick","source":"NCES_CCD_2024_2025","nces_id":"440111000512"}},{"type":"Feature","geometry":{"type":"Point","coordinates":[-71.505222,41.72399]},"properties":{"id":"public_440114000238","name":"Wakefield Hills El. School","school_type":"public","street":"505 Wakefield Street","city":"West Warwick","state":"RI","zip":"02893","grades_high":4,"grade_bucket":"Elementary","lat":41.72399,"lon":-71.505222,"district_geoid":"4401140","district_name":"West Warwick","source":"NCES_CCD_2024_2025","nces_id":"440114000238"}},{"type":"Feature","geometry":{"type":"Point","coordinates":[-71.516751,41.70819]},"properties":{"id":"public_440114000313","name":"John F. Deering Middle","school_type":"public","street":"2 Webster Knight Drive","city":"West Warwick","state":"RI","zip":"02893","grades_low":5,"grades_high":8,"grade_bucket":"Elementary","lat":41.70819,"lon":-71.516751,"district_geoid":"4401140","district_name":"West Warwick","source":"NCES_CCD_2024_2025","nces_id":"440114000313"}},{"type":"Feature","geometry":{"type":"Point","coordinates":[-71.516682,41.714378]},"properties":{"id":"public_440114000315","name":"John F. Horgan School","school_type":"public","street":"124 Providence Street","city":"West Warwick","state":"RI","zip":"02893","grades_high":4,"grade_bucket":"Elementary","lat":41.714378,"lon":-71.516682,"district_geoid":"4401140","district_name":"West Warwick","source":"NCES_CCD_2024_2025","nces_id":"440114000315"}},{"type":"Feature","geometry":{"type":"Point","coordinates":[-71.515999,41.708569]},"properties":{"id":"public_440114000318","name":"West Warwick High School","school_type":"public","street":"1 Webster Knight Drive","city":"West Warwick","state":"RI","zip":"02893","grades_low":9,"grades_high":12,"grade_bucket":"High","lat":41.708569,"lon":-71.515999,"district_geoid":"4401140","district_name":"West Warwick","source":"NCES_CCD_2024_2025","nces_id":"440114000318"}},{"type":"Feature","geometry":{"type":"Point","coordinates":[-71.52532,41.670578]},"properties":{"id":"public_440114000402","name":"Greenbush Elementary School","school_type":"public","street":"127 Greenbush Road","city":"West Warwick","state":"RI","zip":"02893","grades_high":4,"grade_bucket":"Elementary","lat":41.670578,"lon":-71.52532,"district_geoid":"4401140","district_name":"West Warwick","source":"NCES_CCD_2024_2025","nces_id":"440114000402"}},{"type":"Feature","geometry":{"type":"Point","coordinates":[-71.52347,41.690192]},"properties":{"id":"public_440114000514","name":"Maisie E. Quinn School","school_type":"public","street":"1 Brown Street","city":"West Warwick","state":"RI","zip":"02893","grade_bucket":"Other","lat":41.690192,"lon":-71.52347,"district_geoid":"4401140","district_name":"West Warwick","source":"NCES_CCD_2024_2025","nces_id":"440114000514"}},{"type":"Feature","geometry":{"type":"Point","coordinates":[-71.829859,41.401575]},"properties":{"id":"public_440117000120","name":"Springbrook Elementary School","school_type":"public","street":"39 Springbrook Road","city":"Westerly","state":"RI","zip":"02891","grades_high":4,"grade_bucket":"Elementary","lat":41.401575,"lon":-71.829859,"district_geoid":"4401170","district_name":"Westerly","source":"NCES_CCD_2024_2025","nces_id":"440117000120"}},{"type":"Feature","geometry":{"type":"Point","coordinates":[-71.786761,41.34892]},"properties":{"id":"public_440117000319","name":"Westerly Middle School","school_type":"public","street":"10 Sandy Hill Road","city":"Westerly","state":"RI","zip":"02891","grades_low":5,"grades_high":8,"grade_bucket":"Elementary","lat":41.34892,"lon":-71.786761,"district_geoid":"4401170","district_name":"Westerly","source":"NCES_CCD_2024_2025","nces_id":"440117000319"}},{"type":"Feature","geometry":{"type":"Point","coordinates":[-71.775476,41.347121]},"properties":{"id":"public_440117000321","name":"Dunn's Corners School","school_type":"public","street":"8 1/2 Plateau Road","city":"Westerly","state":"RI","zip":"02891","grades_high":4,"grade_bucket":"Elementary","lat":41.347121,"lon":-71.775476,"district_geoid":"4401170","district_name":"Westerly","source":"NCES_CCD_2024_2025","nces_id":"440117000321"}},{"type":"Feature","geometry":{"type":"Point","coordinates":[-71.81911,41.375788]},"properties":{"id":"public_440117000325","name":"Westerly High School","school_type":"public","street":"23 Ward Avenue","city":"Westerly","state":"RI","zip":"02891","grades_low":9,"grades_high":12,"grade_bucket":"High","lat":41.375788,"lon":-71.81911,"district_geoid":"4401170","district_name":"Westerly","source":"NCES_CCD_2024_2025","nces_id":"440117000325"}},{"type":"Feature","geometry":{"type":"Point","coordinates":[-71.824035,41.365351]},"properties":{"id":"public_440117000362","name":"State Street School","school_type":"public","street":"35 State Street","city":"Westerly","state":"RI","zip":"02891","grades_high":4,"grade_bucket":"Elementary","lat":41.365351,"lon":-71.824035,"district_geoid":"4401170","district_name":"Westerly","source":"NCES_CCD_2024_2025","nces_id":"440117000362"}},{"type":"Feature","geometry":{"type":"Point","coordinates":[-71.82183,41.37673]},"properties":{"id":"public_440117000499","name":"Westerly Inclusion Preschool P","school_type":"public","street":"23 Highland Avenue","city":"Westerly","state":"RI","zip":"02891","grade_bucket":"Other","lat":41.37673,"lon":-71.82183,"district_geoid":"4401170","district_name":"Westerly","source":"NCES_CCD_2024_2025","nces_id":"440117000499"}},{"type":"Feature","geometry":{"type":"Point","coordinates":[-71.503743,41.992891]},"properties":{"id":"public_440120000327","name":"Bernon Heights School","school_type":"public","street":"657 Logee Street","city":"Woonsocket","state":"RI","zip":"02895","grades_high":5,"grade_bucket":"Elementary","lat":41.992891,"lon":-71.503743,"district_geoid":"4401200","district_name":"Woonsocket","source":"NCES_CCD_2024_2025","nces_id":"440120000327"}},{"type":"Feature","geometry":{"type":"Point","coordinates":[-71.477545,42.005409]},"properties":{"id":"public_440120000330","name":"Leo A. Savoie School","school_type":"public","street":"990 Mendon Road","city":"Woonsocket","state":"RI","zip":"02895","grades_high":5,"grade_bucket":"Elementary","lat":42.005409,"lon":-71.477545,"district_geoid":"4401200","district_name":"Woonsocket","source":"NCES_CCD_2024_2025","nces_id":"440120000330"}},{"type":"Feature","geometry":{"type":"Point","coordinates":[-71.52616,41.999264]},"properties":{"id":"public_440120000331","name":"Kevin K. Coleman School","school_type":"public","street":"96 Second Avenue","city":"Woonsocket","state":"RI","zip":"02895","grades_high":5,"grade_bucket":"Elementary","lat":41.999264,"lon":-71.52616,"district_geoid":"4401200","district_name":"Woonsocket","source":"NCES_CCD_2024_2025","nces_id":"440120000331"}},{"type":"Feature","geometry":{"type":"Point","coordinates":[-71.525073,41.988665]},"properties":{"id":"public_440120000334","name":"Globe Park School","school_type":"public","street":"192 Avenue A","city":"Woonsocket","state":"RI","zip":"02895","grades_high":5,"grade_bucket":"Elementary","lat":41.988665,"lon":-71.525073,"district_geoid":"4401200","district_name":"Woonsocket","source":"NCES_CCD_2024_2025","nces_id":"440120000334"}},{"type":"Feature","geometry":{"type":"Point","coordinates":[-71.51524,42.007681]},"properties":{"id":"public_440120000336","name":"Harris School","school_type":"public","street":"60 High School Street","city":"Woonsocket","state":"RI","zip":"02895","grades_high":5,"grade_bucket":"Elementary","lat":42.007681,"lon":-71.51524,"district_geoid":"4401200","district_name":"Woonsocket","source":"NCES_CCD_2024_2025","nces_id":"440120000336"}},{"type":"Feature","geometry":{"type":"Point","coordinates":[-71.485813,42.004113]},"properties":{"id":"public_440120000345","name":"Woonsocket High School","school_type":"public","street":"777 Cass Avenue","city":"Woonsocket","state":"RI","zip":"02895","grades_low":9,"grades_high":12,"grade_bucket":"High","lat":42.004113,"lon":-71.485813,"district_geoid":"4401200","district_name":"Woonsocket","source":"NCES_CCD_2024_2025","nces_id":"440120000345"}},{"type":"Feature","geometry":{"type":"Point","coordinates":[-71.485781,42.003039]},"properties":{"id":"public_440120000464","name":"Woonsocket Career an Tech Ctr.","school_type":"public","street":"400 Aylsworth Avenue","city":"Woonsocket","state":"RI","zip":"02895","grades_low":9,"grades_high":12,"grade_bucket":"High","lat":42.003039,"lon":-71.485781,"district_geoid":"4401200","district_name":"Woonsocket","source":"NCES_CCD_2024_2025","nces_id":"440120000464"}},{"type":"Feature","geometry":{"type":"Point","coordinates":[-71.50053,42.003501]},"properties":{"id":"public_440120000516","name":"Woonsocket Middle at Hamlet","school_type":"public","street":"60 Florence Dr.","city":"Woonsocket","state":"RI","zip":"02895","grades_low":6,"grades_high":8,"grade_bucket":"Middle","lat":42.003501,"lon":-71.50053,"district_geoid":"4401200","district_name":"Woonsocket","source":"NCES_CCD_2024_2025","nces_id":"440120000516"}},{"type":"Feature","geometry":{"type":"Point","coordinates":[-71.502687,42.00523]},"properties":{"id":"public_440120000517","name":"Woonsocket Middle @ Villa Nova","school_type":"public","street":"240 Florence Dr.","city":"Woonsocket","state":"RI","zip":"02895","grades_low":6,"grades_high":8,"grade_bucket":"Middle","lat":42.00523,"lon":-71.502687,"district_geoid":"4401200","district_name":"Woonsocket","source":"NCES_CCD_2024_2025","nces_id":"440120000517"}},{"type":"Feature","geometry":{"type":"Point","coordinates":[-71.493312,42.011689]},"properties":{"id":"public_440120000531","name":"Pothier-Citizens Elem Campus","school_type":"public","street":"250 Winthrop Street","city":"Woonsocket","state":"RI","zip":"02895","grades_high":5,"grade_bucket":"Elementary","lat":42.011689,"lon":-71.493312,"district_geoid":"4401200","district_name":"Woonsocket","source":"NCES_CCD_2024_2025","nces_id":"440120000531"}},{"type":"Feature","geometry":{"type":"Point","coordinates":[-71.482727,41.854982]},"properties":{"id":"public_440120100543","name":"Excel Academy Rhode Island","school_type":"public","street":"622 Woonasquatucket Avenue","city":"North Providence","state":"RI","zip":"02911","grades_low":5,"grades_high":7,"grade_bucket":"Elementary","lat":41.854982,"lon":-71.482727,"district_geoid":"4401201","district_name":"Excel Academy Rhode Island","source":"NCES_CCD_2024_2025","nces_id":"440120100543"}},{"type":"Feature","geometry":{"type":"Point","coordinates":[-71.412615,41.823252]},"properties":{"id":"public_440120200544","name":"YouthBuild Preparatory Academy","school_type":"public","street":"217 Westminister Street","city":"Providence","state":"RI","zip":"02903","grades_low":9,"grades_high":12,"grade_bucket":"High","lat":41.823252,"lon":-71.412615,"district_geoid":"4401202","district_name":"YouthBuild Preparatory Academy","source":"NCES_CCD_2024_2025","nces_id":"440120200544"}}]}